Name,Latitude,Longitude,Votes,Rating
Ritual,29.78193,-95.38735,1352,4.0
Gen Korean BBQ House,29.742687,-95.379709,97,4.0
Ambrosia,29.731809,-95.409689,890,4.0
The Rustic,29.7502708,-95.3595825,484,4.0
Oporto Fooding House & Wine,29.7531384239378,-95.3802139853275,940,4.5
Traveler's Table,29.7447631258091,-95.3880459442735,42,4.5
The Pit Room,29.7342352703345,-95.3939679771603,1642,4.5
Nancy's Hustle,29.74551,-95.3520999,510,4.5
Bosscat Kitchen & Libations,29.7418,-95.450518,1608,4.5
La Lucha,29.80193,-95.41033,272,4.5
Hearsay Market Square,29.763046,-95.3615717,1663,4.0
Bird Haus,29.76036,-95.3615819,79,4.5
Studewood Cantine,29.79147,-95.38829,74,4.5
State of Grace,29.7424624840221,-95.4252861972305,635,4.5
North Italia,29.7485868638914,-95.4620253208921,1515,4.0
Kulture,29.7545999989511,-95.3567959944427,313,4.0
Steak 48,29.741784,-95.454529,1037,4.5
Lucille's,29.72388,-95.38515,828,4.0
JINYA Ramen Bar,29.742755,-95.379845,2778,4.5
The Blind Goat,29.76156,-95.36228,147,4.0
Nobie's,29.73536,-95.41004,360,4.5
Rosie Cannonball,29.7429149,-95.3998577,32,4.0
Peli Peli,29.7397965769971,-95.4640101607907,1641,4.5
Ruggles Black,29.7313688242292,-95.4180035698364,545,4.0
Sixty Vines,29.7160551435419,-95.4172210115955,66,4.5
BCK,29.7887995448524,-95.388083953373,778,4.5
One Dim Sum,29.75076,-95.37554,103,3.5
Grotto Downtown,29.7539178,-95.3571966,323,4.0
Squable,29.802594,-95.409436,102,4.5
Postino Montrose,29.74651,-95.39033,62,4.5
L&L Hawaiian Barbecue,29.77461,-95.398,25,4.5
Conservatory,29.76038,-95.36162,486,4.5
Shun Japanese Kitchen,29.74042,-95.41089,250,4.5
Coltivare,29.7817,-95.39371,831,4.0
Pinkerton's Barbecue,29.79868,-95.3815,634,4.5
Hearsay on the Green,29.752967,-95.361335,471,4.0
Mico’s Hot Chicken,29.7364923677041,-95.476171,208,4.5
Rodeo Goat,29.749827,-95.356385,502,4.5
Merus Grill by J. Alexander's,29.75537,-95.45831,6,5.0
Crisp,29.8062839508057,-95.4220886230469,855,4.0
Edison & Patton,29.79839,-95.36316,450,4.0
Gyu-Kaku Japanese BBQ,29.7505917766388,-95.3753622367706,1345,4.0
Yoyo's Hot Dog,29.7162012025613,-95.4146640004135,750,4.5
On The Kirb,29.7275609954157,-95.4188848876245,447,4.5
Bollo Woodfired Pizza,29.7389786,-95.4134581,578,4.5
Street Food Thai Market,29.80417,-95.38505,265,4.5
1751 Sea and Bar,29.77387,-95.39795,159,4.5
MAD,29.743755,-95.453037,167,4.0
Uchi,29.74493,-95.39091,1819,4.5
Fat Bao,29.7351499099632,-95.4181346297265,1566,4.0
Tiger Noodle House,29.717709,-95.416064,213,4.5
The Original Ninfa's on Navigation,29.75667,-95.3427,1330,4.0
Truck Yard - Houston,29.75017,-95.35589,387,4.0
benjy's,29.719421,-95.416392,1122,4.0
Osso & Kristalla,29.7574509,-95.3579026,242,4.0
Eunice,29.7323075,-95.4278721,212,4.5
Irma's Southwest,29.7575897012463,-95.3583053970873,324,4.0
Potente,29.7572378866031,-95.3574474900742,204,4.5
Dream Wings,29.81854,-95.42985,214,4.5
Asia Market Thai Lao Food,29.7911832,-95.3728234,356,4.5
Truth BBQ,29.76892,-95.39742,253,4.5
Gus's World Famous Fried Chicken,29.76753,-95.37655,570,4.0
Elliot's Table,29.77962,-95.41845,120,4.0
Savoir,29.79596,-95.39889,34,4.0
Wanna Bao,29.74769,-95.38019,407,4.0
Pappas Bros. Steakhouse,29.7555094708505,-95.3628793166023,257,4.5
Kokoro,29.76156,-95.36228,68,4.5
Grace's,29.737020211778,-95.4185060876135,817,4.0
Hamburger Mary's,29.74768,-95.39075,270,4.0
Masraff's,29.74813,-95.46087,865,4.5
Hu's Cooking,29.70645,-95.41693,220,4.5
Field & Tides,29.7910957336426,-95.3896789550781,396,4.0
La Fisheria,29.7634727117342,-95.3621543826332,525,4.0
Roost,29.7447265,-95.4073275,529,4.0
Lúa Viet Kitchen,29.73893,-95.39912,335,4.5
Brenner's on the Bayou,29.7595459124491,-95.4199138920306,649,4.0
Huynh Restaurant,29.75179,-95.35552,859,4.0
Rim Tanon,29.7340213532774,-95.4147996660098,350,4.5
Candente,29.73415,-95.39313,55,4.0
BCN Taste & Tradition,29.7349309,-95.390075,297,4.5
Mia's Table,29.73713,-95.41731,595,4.0
Riva's Italian Restaurant,29.74605,-95.39248,516,4.0
The French Fry House,29.68129,-95.31999,165,4.5
Truluck's,29.7402018410924,-95.4699522711639,717,4.0
La Calle Tacos,29.7634662971423,-95.3606901858526,556,4.0
Izakaya,29.7520078,-95.3768782,588,4.0
Flying Saucer Draught Emporium,29.75882,-95.36315,712,4.0
Zen Japanese Izakaya,29.74762,-95.4103499,211,4.0
The Hay Merchant,29.74494,-95.39303,991,4.0
Luna Pizzeria,29.7350980889096,-95.4177527502179,886,4.5
rise nº2,29.74999,-95.462702,454,4.5
Pappadeaux Seafood Kitchen,29.750839,-95.359628,195,4.0
Relish Restaurant & Bar,29.742346,-95.4211217,152,4.0
Yauatcha,29.740199,-95.462726,668,4.0
Roma,29.7149,-95.41475,73,4.0
Finn Hall,29.758662,-95.363796,188,4.0
Theodore Rex,29.767778,-95.3540249,144,4.5
Saint Arnold Brewing Company,29.771458,-95.34779,832,4.5
MF Sushi,29.723782,-95.385899,502,4.5
The Turkey Leg Hut,29.7259279609009,-95.377991348505,1002,3.5
Alice Blue,29.8027866863104,-95.4010648693115,201,4.0
Around the Corner,29.7467267366316,-95.3580480587744,181,4.5
The Rice Box,29.8037,-95.4017,622,4.0
Prohibition Theatre,29.76045,-95.36169,551,4.0
LES NOO'DLE,29.752078,-95.3918897,278,4.5
True Food Kitchen - Houston,29.749342,-95.462263,960,4.0
Andes Cafe,29.75829,-95.3464,372,4.0
Pinstripes,29.7354339,-95.4188049,16,4.5
Perbacco,29.760168,-95.365059,167,4.0
Blanco Tacos + Tequila,29.7396,-95.465471,320,4.0
The Grove,29.7526501477753,-95.3603514211737,747,3.5
JINYA Ramen Bar,29.80336,-95.4052,55,4.5
Backstreet Café,29.75533,-95.40863,1314,4.0
Aladdin Mediterranean Cuisine,29.745032,-95.391123,1033,4.5
Kata Robata,29.7335727255874,-95.4194910185242,1419,4.0
Moxie's Grill & Bar,29.7421763,-95.4623737,554,4.0
The Breakfast Klub,29.73843,-95.38048,4279,4.5
Jackson Street BBQ,29.7588636332986,-95.3543785428204,438,4.0
Stanton's City Bites,29.770945,-95.372068,1088,4.5
The Moonshiners Southern Table + Bar,29.76056,-95.36188,560,4.0
Nobu Houston,29.74048,-95.46467,243,3.5
Kenny & Ziggy's New York Delicatessen,29.7429019,-95.4608651,1137,4.0
Vic & Anthony's Steakhouse,29.7570194980525,-95.3581523895264,877,4.0
Preslee’s - Southern Good Eatery,29.80231,-95.42419,42,3.0
Lotti Dotti,29.734293,-95.387233,38,4.5
Brennan's of Houston,29.7429008483887,-95.3814392089844,733,4.0
Olive & Twist,29.73435,-95.42048,51,4.5
The Gypsy Poet,29.74416,-95.37029,78,5.0
Mama’s Kitchen,29.7323257688598,-95.4388258070098,44,4.5
The Classic,29.77125,-95.42139,253,4.5
M&M Grill,29.70125,-95.38558,712,4.5
Xochi,29.754551,-95.3582,699,4.0
Niko Niko's Greek & American Cafe,29.74651,-95.39218,1887,4.0
Dak & Bop,29.721726,-95.382427,1026,3.5
Brasserie du Parc,29.7538691044983,-95.3612487998702,226,4.0
Grand Lux Cafe,29.7412259641579,-95.4629382423279,854,3.5
Spicy Girl,29.7389782,-95.3801068,305,4.0
Better Luck Tomorrow,29.78122,-95.39861,248,4.0
Mastrantos,29.788228,-95.388072,99,4.5
Riel,29.74456,-95.40489,213,4.0
Chicken Station,29.73594,-95.30192,157,4.5
Tamashi Ramen and Sushi,29.70642,-95.41726,360,4.5
Pepper Twins,29.74806,-95.38634,597,4.0
Eddie V's Prime Seafood,29.7402734338612,-95.4190848558197,618,4.5
B&B Butchers & Restaurant,29.76807,-95.37628,953,3.5
La Villa,29.733931,-95.3908263,58,4.5
Moon Tower Inn,29.754284,-95.341073,762,4.0
Giacomo's Cibo e Vino,29.742032,-95.423718,511,4.0
Local Foods,29.7195096809181,-95.4164240674591,1508,4.5
The Blue Fish,29.7620117022974,-95.3664868883606,840,4.0
Songkran Thai Kitchen,29.7565604,-95.4573055,360,4.0
City Acre Brewing,29.85699,-95.33508,121,4.5
Liberty Kitchen & Oyster Bar,29.79058,-95.38753,1075,3.5
Bistecca,29.744848,-95.383987,187,4.5
D'Amico's Italian Market Cafe,29.71598,-95.4153504,367,4.0
Doris Metropolitan,29.740215,-95.410475,199,4.5
Da Marco,29.74313,-95.397814,324,4.0
Dolce Vita,29.744775,-95.38742,711,4.0
Mia Bella Trattoria,29.7534684960069,-95.3641167312134,279,4.0
B.B. Lemon,29.7674542512049,-95.3761047497392,202,3.5
Del Frisco's Double Eagle Steakhouse,29.7399776,-95.4638549,721,4.0
Lucienne,29.7551246407975,-95.3660582005978,65,4.0
Houston's,29.72891,-95.4189,613,4.0
The Stuffed Baked Potato Factory,29.6871998667623,-95.3411567819705,170,4.0
Rocco's,29.79333,-95.35928,57,4.5
Urban Eats,29.7695392518322,-95.3949268650834,889,4.0
Andalucia Tapas Restaurant & Bar,29.753411,-95.364196,488,3.5
Roka Akor - Houston,29.7387,-95.44081,338,4.5
Taste Bar + Kitchen,29.74529,-95.3813,378,3.5
King's Bierhaus,29.8041431,-95.4274122,533,4.0
Bravery Chef Hall,29.76156,-95.36228,50,4.5
Aka Sushi House,29.7386449,-95.4161434,1137,4.0
Blackbird Izakaya,29.79036,-95.4092,214,4.0
Georgia James,29.7450251168537,-95.393044911325,164,4.0
Ono Poke,29.73431,-95.38741,713,4.5
MAX's Wine Dive,29.748418,-95.385446,582,4.0
Verdine,29.80336,-95.4052,149,4.0
Hughie's,29.80131,-95.4317,710,4.0
Yokushi Robata,29.7323230077825,-95.4392364666781,216,4.0
Patrenella's,29.76912,-95.4021,347,4.0
Punk's Simple Southern Food,29.7185841228888,-95.4150941883606,559,3.5
Dish Society,29.79044,-95.39853,420,4.5
Mai's Restaurant,29.7411156,-95.3798064,1019,3.5
Tiny Boxwoods,29.73851,-95.43509,1207,4.0
Warehouse 72,29.785959,-95.465455,86,4.0
Blue Onyx Bistro,29.733347807236,-95.456397757844,322,4.5
LES BA'GET,29.81675,-95.42858,124,4.0
Thai Cafe,29.76335,-95.36025,84,4.5
Tamashi Ramen and Sushi,29.7884065,-95.4678997,405,4.5
BOH Pasta & Pizza,29.7617656683504,-95.3621810104161,38,4.5
Julep,29.7676141,-95.3779718,335,4.0
Fig & Olive - Houston,29.7396908,-95.4652897,268,4.0
Hughie's,29.79774,-95.38316,168,4.5
Seasons 52,29.7415521341054,-95.4521601294998,565,4.0
Shepherd Park Draught House,29.8175785297165,-95.4099878697624,376,4.5
The Rice Box,29.7556801,-95.40862,163,4.0
Ramen Tatsu-Ya,29.7433,-95.39833,859,3.5
Anonymous Cafe,29.733156,-95.41801,78,5.0
The Gyro Grill Guys,29.743904,-95.364636,213,4.5
Sorrento Ristorante Italiano,29.7444128,-95.3867141,306,4.0
Reggae Hut,29.7264276,-95.3776415,370,4.0
Good Dog Houston - Heights,29.78741,-95.38797,623,4.0
Penny Quarter,29.743103,-95.396913,44,4.5
Standard,29.77073,-95.41488,53,4.0
Etoile Cuisine et Bar,29.75697,-95.45693,369,4.5
Ginger & Fork,29.775371,-95.408767,237,4.0
Calle Onze,29.79043,-95.39974,348,4.0
Istanbul Grill,29.71566,-95.41463,513,4.0
El Tiempo Cantina- Richmond,29.7342285,-95.4257327,731,4.0
Fadi's Meyerland Mediterranean Grill,29.6894149,-95.4600067,649,4.5
Esther's Cajun Cafe & Soul Food,29.84202,-95.40257,298,4.0
The Pho Spot,29.760415889082,-95.3616855293512,200,4.5
Cowboys & Indians Tex-In Kitchen,29.75182,-95.38547,308,4.0
Treebeards,29.7621854179471,-95.3618420932421,196,4.0
Hopdoddy Burger Bar,29.716185,-95.4153643206374,530,4.0
The Capital Grille,29.7392743,-95.4699321,365,4.0
Postino Heights,29.78306,-95.3985299,401,4.0
BB's Tex-Orleans,29.78133,-95.38794,767,4.0
Night Heron,29.7357217,-95.399477,119,4.0
Tropical’s Colombian Restaurant,29.74485,-95.38351,31,4.5
Rachels Cafe,29.7597414288733,-95.3599986477912,170,4.5
Izakaya WA,29.7524467617111,-95.4097392389107,101,4.5
Asia Market Thai Restaurant,29.80392,-95.368171,243,4.0
Helen In The Heights,29.791578,-95.388365,194,4.0
Luigi's Pizzeria,29.735367,-95.374622,1040,4.0
Cafe Brussels,29.77355,-95.3722,271,4.0
Artisans Restaurant,29.7425096583742,-95.3799537073163,404,4.0
Cantina Barba,29.79085,-95.37339,128,4.5
Ray's BBQ Shack,29.7026499,-95.3567173,661,4.5
La Griglia,29.75356,-95.40889,350,4.0
Mendocino Farms,29.7593,-95.36241,4,4.5
Goode Company Seafood,29.7285128246383,-95.4203385626453,566,4.0
Ploughman's Deli & Cafe,29.840683,-95.420117,110,5.0
Vinoteca Poscol,29.74476,-95.3893499,119,4.0
Local Foods,29.7425611,-95.4181027,812,4.5
El Tiempo Cantina - Navigation,29.75631,-95.34151,333,4.0
Piola,29.74287233551,-95.3798845184326,586,4.0
Superica,29.80193,-95.41033,276,4.0
Sofrito,29.8153470366494,-95.4297368084947,21,5.0
Oishii,29.7330860390498,-95.4368909182455,1227,4.0
Batanga,29.7623427,-95.3614479,969,3.5
Helen Greek Food and Wine,29.71728,-95.41606,336,4.0
Caracol,29.7433633233118,-95.4613215925904,1056,4.0
Pluckers Wing Bar,29.7735952,-95.4093677,918,3.5
MKT BAR,29.7544629017867,-95.3614359686478,576,4.0
Pappasito's Cantina,29.751495697002,-95.3606378552088,344,3.0
Eloise Nichols Grill & Liquors,29.742388,-95.4505148,323,4.0
Emmaline,29.7574085485449,-95.3999614033765,344,3.5
Harold's,29.8026744965396,-95.4033817668648,276,3.5
A'Bouzy,29.7426814370813,-95.4153464734554,356,3.5
Texadelphia,29.7419099637541,-95.3909698743018,85,4.0
Under the Volcano,29.72527,-95.4147,337,4.0
Ibiza Food & Wine Bar,29.747401,-95.3768201,461,4.0
Mandola's Deli,29.73764,-95.33956,271,4.5
La Table,29.7473478503039,-95.4616583121282,265,4.0
Cooking Girl,29.70636,-95.41496,213,4.0
Little Matt's,29.71587,-95.43353,500,4.5
Cajun Town Cafe,29.75796,-95.347447,57,4.5
Pasha,29.7148246765137,-95.4138641357422,290,4.0
BB's Tex-Orleans,29.745212,-95.391735,632,3.5
Yia Yia Mary's,29.74753,-95.45791,699,3.5
Siu Lap City,29.74512,-95.37747,94,4.5
Antica Osteria,29.725282,-95.413276,313,4.0
Diced Poke,29.739003,-95.380113,411,4.5
Blue Nile,29.737581,-95.426543,324,4.0
Roti,29.7092641,-95.4014984,2,5.0
Beer Market Co - Studemont,29.7671159390386,-95.3917187200568,315,4.0
UB Preserv,29.742502114649,-95.3997889906168,130,4.0
Maggiano's Little Italy,29.74507,-95.460509,634,3.5
Nara Express,29.747424155181,-95.3706633785736,416,4.0
Loch Bar,29.742318,-95.453565,79,4.0
Doberman's Bar & Grill,29.76731,-95.40966,183,4.5
Bernie's Burger Bus,29.8062298601927,-95.3989635407925,313,4.0
Gusto Gourmet,29.7362906,-95.4108062,281,4.5
Mint Thai Kitchen,29.76011,-95.39857,143,4.0
Govinda's Vegetarian Cuisine,29.8176694576682,-95.423864390213,356,4.5
Café Rabelais,29.7167059779167,-95.4156891256571,319,4.0
Voodoo Queen Daiquiri Dive,29.747526,-95.337898,179,4.0
Shell Shack,29.76853,-95.38337,221,3.0
Red Lion British Pub,29.74565,-95.41098,610,3.5
Mary'z Mediterranean Cuisine,29.7706311048388,-95.4068061172845,216,4.0
Surya India,29.7685441737493,-95.4102170839906,272,4.0
Damian's Cucina Italiana,29.74437,-95.3797,214,4.0
Mendocino Farms,29.716224,-95.415251,117,4.0
Luna Pizzeria,29.7724879794653,-95.3990623776413,234,4.5
Fadi's Eatery,29.72173,-95.38244,63,4.5
China Garden,29.7491456,-95.3632065,221,4.0
Kubo’s Sushi & Washoku,29.7682,-95.37761,43,4.5
Paulie's,29.7428749,-95.4064275,781,4.0
Bloom & Bee,29.75134,-95.45705,194,3.5
The Chicken & Rice Guys,29.8117842905828,-95.3997976018524,78,4.0
Biggio's,29.7540775490537,-95.3578174860361,329,3.0
The Burger Joint,29.74533,-95.39118,1015,4.0
Foundation Room,29.7539291,-95.3640564,70,4.5
KA Sushi,29.803124,-95.4107372,393,4.0
Thai Bistro,29.72865,-95.430533,354,4.0
Flip 'n Patties,29.7594315325627,-95.3648082911968,39,4.5
Mastro's Steakhouse,29.751449,-95.456474,355,3.5
District 7 Grill,29.7521019589688,-95.3747399760931,546,4.0
Sapporo Japanese Sushi & Bar,29.7632468924356,-95.3620460044849,62,4.5
Maison Pucha Bistro,29.78922,-95.3881,225,4.0
Samurai Noodle,29.7764846,-95.4112293,625,4.0
Nippon Japanese Restaurant,29.73269,-95.39147,666,4.0
SeaSide Poke,29.7501531437211,-95.3561897076783,382,4.5
Bubba's Texas Burger Shack,29.7259695179953,-95.4668481174935,735,4.0
Krab Kingz Seafood,29.8611744582097,-95.4729844629765,216,3.5
Brookstreet Bar-B-Que,29.7460823059082,-95.3914413452148,351,4.0
Guadalajara Mexican Grille & Bar,29.72957,-95.4236899,373,4.0
Cane Rosso,29.8025909301009,-95.4104705527425,384,3.5
Miyako,29.77024,-95.407674,294,4.0
Barnabys Cafe,29.75366,-95.387,436,4.0
Zydeco Louisiana Diner,29.75109,-95.3673699,209,4.5
Reef,29.745798,-95.37534,755,3.5
Ike's Love & Sandwiches,29.7903824253055,-95.3978858305221,100,4.0
The Empanada Factory,29.728305,-95.437831,108,4.5
Carrabba's - The Original on Kirby,29.7364881579311,-95.4183509045328,449,4.0
BirdDog Saint,29.75862,-95.36313,49,3.5
Tacos Tierra Caliente,29.73829,-95.40826,824,4.5
Kura Revolving Sushi Bar,29.7396381,-95.3788745,309,4.0
Tourão Brazilian Churrasqueria,29.7332919,-95.3914724,167,4.0
Hubcap Grill,29.760158,-95.360458,294,4.0
Cabo Baja Tacos & Burritos,29.77071,-95.4071,300,4.0
Your Pie,29.7522964518359,-95.3684243165043,254,4.5
sweetgreen,29.74343,-95.39514,29,4.5
Rosalie Italian Soul,29.7579561439064,-95.3711798787117,15,3.5
Mala Sichuan Bistro,29.7442254,-95.3932558,437,4.0
The Raven Grill,29.72589,-95.40649,345,4.0
Gatlin's BBQ,29.8204165146057,-95.4290675846557,658,3.5
Ouzo Bay,29.742318,-95.453565,97,3.5
The Halal Guys,29.732289,-95.4121366,1049,4.0
Mia Bella Trattoria,29.7323697055943,-95.4381511442779,361,4.5
Rainbow Lodge,29.8045101165771,-95.4296264648438,483,4.0
Wings of Houston,29.744284,-95.3861231,26,3.5
The Union Kitchen,29.7057177104364,-95.4420052760595,534,3.5
Part & Parcel,29.7537066,-95.3731559,36,4.0
Jus' Mac Montrose,29.744899,-95.3820099,523,3.5
Weights + Measures,29.742636,-95.372765,753,3.5
Lankford Grocery,29.75005,-95.38382,688,4.0
Fukuoka Sushi Bar & Grill,29.74512,-95.37747,145,4.5
Mendocino Farms,29.75766417,-95.457146,27,5.0
Guadalajara Del Centro,29.7540366752636,-95.3644546895492,440,3.5
Pepper Twins,29.731742,-95.417754,210,4.0
B.B. Lemon,29.73357,-95.39089,39,3.5
Petrol Station,29.8213393,-95.4239446,692,4.0
Platypus Brewing,29.768207,-95.377465,185,4.0
Eight Row Flint,29.79033,-95.39928,332,3.5
Last Concert Cafe,29.76834,-95.35315,179,4.0
Spanky's,29.6949,-95.2996,260,4.0
The Blue Fish - Houston,29.7714194956363,-95.4208760152766,784,4.0
Federal American Grill,29.7670059204102,-95.409065246582,462,4.0
Roti Modern Mediterranean,29.709644,-95.401239,2,5.0
The Union Kitchen,29.8186757,-95.4293346,379,4.0
Hugo's,29.74317,-95.39977,1266,4.0
The Boot,29.803425,-95.420311,311,3.5
Cielito Cafe,29.748475,-95.401941,195,4.5
Bellissimo Ristorante,29.804596,-95.381574,215,4.0
Flower Child,29.75697,-95.45693,302,4.5
Local Foods,29.783645,-95.398487,175,4.5
Spindletop,29.756919,-95.369435,273,3.5
Capone's Oven & Bar,29.73401,-95.41529,183,4.0
Roostar Vietnamese Grill,29.7313251,-95.4753633,685,4.5
Pappas Seafood House,29.739089,-95.4102888,202,4.0
Hopdoddy Burger Bar,29.7435167,-95.4536324,739,3.5
Pho Binh,29.781788,-95.390205,390,4.0
Bovine & Barley,29.76114,-95.36197,250,3.5
Velvet Taco,29.7700614929199,-95.4101257324219,1857,4.0
TASTE SICHUAN BISTRO,29.741696,-95.462977,8,5.0
HS Green,29.7325599889764,-95.4640570655465,339,4.5
House of Fries,29.843105,-95.472766,231,4.5
Peru Cafe Express,29.7283750376028,-95.4378222833283,280,4.5
Soul Food Vegan,29.73596,-95.36347,198,3.5
The Pastry War,29.7620197966518,-95.3612599099258,317,4.0
Gyro King,29.698073,-95.387614,703,4.5
The Annie Café & Bar,29.74778,-95.46229,10,4.5
Sonoma Wine Bar & Restaurant,29.7344229,-95.4208099,236,4.0
Barnaby's Cafe,29.721761,-95.382537,584,4.0
RA Sushi,29.7418815,-95.4435881,742,3.5
Cavatore Italian Restaurant,29.8052,-95.42883,343,3.5
Pepper Twins,29.7530888020992,-95.40378279984,282,4.0
Gyro Hut,29.69939,-95.3857,220,4.5
Downtown Aquarium,29.7642702707008,-95.3673791885376,767,3.0
The Union Kitchen,29.770879,-95.422966,231,4.0
House Of Hoopz Crawfish,29.7523023722423,-95.354887470603,43,4.5
Cafe Ginger,29.754342,-95.402018,371,4.0
Harris County General Store Barbecue,29.74703,-95.30759,15,5.0
Hungry's,29.71784,-95.41363,715,3.5
BuffBurger,29.738828,-95.399186,227,4.0
Aladdin Mediterranean Grill - Garden Oaks,29.8166847925393,-95.4307027906179,126,4.5
Watershed,29.6714359176385,-95.4596153178446,68,5.0
Pho Saigon,29.7451191,-95.3774719,927,4.0
Osaka Japanese Restaurant,29.74425,-95.38821,586,4.0
Love Buzz,29.7446872,-95.3864958,158,3.5
Atlas Diner,29.7619967538176,-95.3621832202955,9,4.5
AGU Ramen - Washington,29.778476,-95.429857,298,3.5
Neo Baguette,29.8041031910297,-95.3965086489916,135,4.5
bellagreen,29.790639,-95.3879981,406,4.0
Bayou & Bottle,29.75401,-95.36277,40,4.0
Dumpling Haus,29.7411089,-95.4306334,10,4.5
El Tiempo Cantina- Washington,29.7709916,-95.4189711,585,4.0
III Forks Prime Steakhouse,29.7541953989078,-95.3647297788593,380,3.5
Slowpokes,29.816942,-95.420669,238,4.5
Poitín Bar & Kitchen,29.7701177386825,-95.3822795350571,274,3.5
Ninja Ramen,29.7701308711855,-95.4038063259051,452,3.5
Argentina Cafe,29.7351398468018,-95.4661560058594,368,4.0
Café Poêtes,29.75348,-95.37966,266,4.0
Ouisie's Table,29.746008,-95.443169,505,3.5
Bodegas Taco Shop,29.723803,-95.387708,540,3.5
Churrascos River Oaks,29.742367,-95.409116,310,4.0
Taco Keto,29.73877,-95.33909,114,4.5
Bacco Wine & Spirits,29.7275861,-95.4208844,152,4.5
Mina Ristorante,29.7381940494014,-95.4363139242039,16,4.0
Le Colonial,29.7420053195376,-95.4533068773155,353,3.5
Sozo Sushi Lounge,29.7500602132296,-95.4624052428372,336,4.0
Cleburne Cafeteria,29.72567,-95.43232,396,3.5
Bayou City Seafood and Pasta,29.7325683,-95.4575265,448,4.0
Coppa Osteria,29.7189381,-95.4149874,467,3.5
Indianola,29.7490110165714,-95.3567924837475,148,4.0
Star Pizza,29.73229,-95.41103,770,4.0
Little Pappasito's Cantina,29.7344,-95.4177,527,4.0
The Oyster Bar at Prohibition,29.7603463,-95.3615819,61,4.0
Tony Mandola's,29.75576,-95.3984,326,4.0
Américas,29.7536115992694,-95.4104623190491,506,4.0
Indika,29.744766,-95.387886,440,4.0
Trendy Dumpling,29.7290612,-95.4300246,118,3.5
El Meson Restaurant,29.71481,-95.41599,187,3.5
Tarka Indian Kitchen,29.80303,-95.41111,492,4.0
The Fish,29.7523809637171,-95.3772068023682,389,4.0
Helen T's Soul Food Cafe,29.8303049061824,-95.3191835805774,17,5.0
Treebeards,29.75947,-95.36097,31,4.5
STUFF'd Wings,29.7012771,-95.3650802,42,3.5
Bistro Menil,29.73824,-95.39844,279,3.5
Goode Company Armadillo Palace,29.7272756,-95.4183166,192,3.5
Spaghetti Western Italian Cafe,29.775061,-95.409362,276,4.0
La Sicilia,29.74425,-95.38821,201,4.5
Jus' Mac,29.81066,-95.39966,730,3.5
Local Poke,29.7707245653136,-95.4067248478532,177,5.0
The District,29.75973,-95.362981,194,3.5
Piada Italian Street Food,29.76099,-95.42052,366,4.0
Baby Barnaby's,29.7483,-95.38828,1315,4.5
Cuchara,29.748418,-95.385446,696,3.5
BB’s Tex-Orleans,29.81689,-95.43032,106,4.0
Phil & Derek's,29.74439,-95.36553,447,3.5
Henderson Heights,29.7675296294074,-95.3793103247881,91,4.5
Muiishi Makirritos,29.75017,-95.35589,157,4.5
Divino,29.738854,-95.405942,85,4.0
Chapman & Kirby,29.7500898419434,-95.3559485586045,164,3.0
Me'lange,29.75315,-95.38623,74,4.0
The Community Bar,29.7462648,-95.3782144,216,4.0
The Kitchen at The Dunlavy,29.76114,-95.401872,735,4.0
Original Pinoy Meals,29.6932126,-95.4150577,5,5.0
Laurenzo's Restaurant,29.77069,-95.40562,433,3.5
Good Dog,29.738886777925,-95.3952345997095,237,4.0
Liberty Kitchen & Oysterette,29.7469456093221,-95.4497998117782,701,4.0
Fajitas A Go Go,29.7237821167041,-95.4189620912075,326,4.0
The Flat,29.7515201568604,-95.3986434936523,246,4.0
Saigon Smoke,29.802491,-95.3816657,17,5.0
McCormick & Schmick's Seafood & Steaks,29.754575,-95.4570993,349,3.0
The Halal Guys,29.7097897,-95.4020403,76,4.5
Tamashi Ramen Sushi,29.829031,-95.4307995,43,4.5
Qin Dynasty,29.728036,-95.427238,356,4.0
Bungalow Heights,29.80336,-95.41829,120,3.5
Velvet Taco,29.7445648126161,-95.3905151312828,318,4.5
Barbecue Inn,29.82854,-95.40036,278,4.0
Gloria's Latin Cuisine,29.7467295,-95.377229,571,3.5
Bombay Pizza,29.75773,-95.36496,1086,4.0
Kiran's,29.73356,-95.42271,193,4.0
Uptown Sushi,29.7554255603298,-95.456566587558,333,4.0
BB's Tex-Orleans,29.73362,-95.42607,446,3.5
Frank's Pizza,29.761395,-95.362598,763,4.0
The Cheesecake Factory,29.73897,-95.463121,636,3.0
Willie G's Seafood,29.7509453,-95.4566004,396,3.5
369 Oriental Bistro,29.7445052,-95.3916639,260,4.0
Peru Gourmet,29.663261,-95.464823,104,4.5
Down the Street,29.7791897838263,-95.4260782798443,269,4.0
Cafeza,29.7736,-95.3722,309,4.0
Lucky's Lodge,29.75256,-95.35467,16,4.5
Maine-ly Sandwiches,29.7856017,-95.4649034,707,4.0
Indigo,29.83778,-95.36848,62,4.0
Escalante's,29.7412227,-95.4472044,286,3.5
Buca di Beppo Italian Restaurant,29.7268984,-95.428406,482,3.0
Goodnight Charlie's,29.7433221628276,-95.4003073275089,70,4.0
Frenchy's Chicken,29.773698,-95.325981,29,4.5
Best Soul Food In Town,29.687916,-95.3539,63,4.0
Jax Grill,29.7753925323486,-95.4099426269531,213,4.0
Pappa Geno's,29.80202,-95.43037,566,4.5
Hugh O'Connors,29.786062,-95.465085,59,4.5
Sonoma Wine Bar & Restaurant - Heights,29.7853393554688,-95.3877944946289,203,4.0
Holman Draft Hall,29.7402447,-95.3797844,239,4.0
Fabian's Latin Flavors,29.76203,-95.36068,147,3.5
Local Foods,29.7609231985565,-95.3619832545519,226,4.5
Fusion Taco Canteen & Cocktails,29.7981309,-95.3823537,173,4.0
Fresco Cafe Italiano,29.7287262957213,-95.4316117488783,176,4.5
Craft F&B,29.752104,-95.457319,52,4.0
The Signature Kafe,29.7383574396372,-95.3797864168882,11,4.0
Politan Row - Houston,29.71655,-95.4164,18,3.0
Pistolero's,29.742544,-95.39836,430,3.5
Kau Ba,29.743614,-95.402279086411,113,4.0
La Grange,29.7434907,-95.4011294,350,3.5
La Vibra Tacos,29.779766,-95.3985646,121,4.0
La Fondita Michoacan,29.78918,-95.40955,40,4.5
Coral Sword,29.7307648065755,-95.3273910975722,86,4.5
La Fendee Mediterranean Grill,29.743457,-95.396209,247,4.0
Tacos A Go Go,29.7383884,-95.3798736,902,4.0
Twin Peaks,29.73139,-95.41722,355,3.5
The Cajun Stop,29.74465,-95.35997,523,3.5
District 7 Grill,29.7469,-95.3579199,70,4.0
Frank's Americana Revival,29.74196,-95.43997,208,4.0
Henderson & Kane,29.76597,-95.37954,56,5.0
Fleming's Prime Steakhouse & Wine Bar,29.738118,-95.416578,329,4.0
Leeland House,29.74654,-95.35827,286,4.0
Cyclone Anaya's Mexican Kitchen,29.7524247,-95.3772482,631,3.0
Grotto Ristorante,29.740495,-95.456781,314,3.5
The '401,29.70708,-95.47299,224,4.5
Pizzeria Solario,29.7347932634449,-95.4411491633683,293,4.0
Rudyard's,29.749886,-95.396551,242,4.0
Cottonwood,29.8182730404055,-95.4100037265833,508,3.5
Jin Bento,29.757728,-95.364952,30,4.5
Oh My Gogi!,29.7164422761895,-95.414836290213,527,4.0
Kanomwan,29.734432220459,-95.3306884765625,209,3.5
Breaking Bao,29.7165161,-95.4163528,29,4.5
Ninfa's Mexican Restaurant,29.668205,-95.2608907,177,4.0
Tony's,29.73204,-95.436,319,3.5
Chuy's,29.742689,-95.420446,701,3.5
Morton's The Steakhouse,29.7567493090322,-95.3641144068024,186,3.5
Penjamo El Grande,29.787224,-95.303604,13,5.0
Lucio's BYOB,29.758326,-95.385579,215,4.0
The Oceanaire Seafood Room,29.7402571,-95.4639148,476,3.5
Understory,29.759439100095,-95.364798232913,15,4.0
Asahi Sushi,29.68877,-95.4131533,323,4.0
Restaurante Monte Cristo,29.7512503,-95.3352994,6,4.0
Leaf & Grain,29.75527,-95.36304,89,4.5
Tex-Chick Puertorrican Restaurant,29.74833,-95.38934,109,4.0
Dona Maria,29.75787,-95.34309,117,4.5
Hoot's Smokehouse,29.735143213987,-95.2868901193142,29,4.5
Le Bistro,29.82358,-95.37856,100,4.0
Fainmous BBQ,29.66818,-95.4637,287,4.0
Tea + Victory,29.80427,-95.42676,174,4.5
Katz's Deli & Bar,29.744801,-95.38951,993,3.5
Crumbville,29.7344,-95.36537,139,5.0
Carniceria Aguascalientes,29.70036,-95.27753,107,4.5
Brothers Taco House,29.74513,-95.35682,358,4.0
El Tiempo Cantina- Westheimer,29.745045,-95.38576,286,3.5
Pop's,29.78331,-95.34219,12,4.0
Midwest Coney Connection,29.7364284,-95.4760301,82,5.0
Liberty Taco,29.7325893491507,-95.4560000449419,656,4.5
Dimassi's Mediterranean Buffet,29.689106703537,-95.4130176562456,264,4.0
Irma’s Original,29.76011,-95.35204,388,3.0
Sticky's Chicken,29.77018,-95.38161,75,4.0
Barnaby's Cafe,29.7482437315525,-95.3884293703781,310,4.0
Ragin' Cajun Restaurant,29.73283,-95.44908,483,3.5
Blanca's Cafe,29.75259,-95.33393,8,4.5
Les Givral's Sandwich & Café,29.745506,-95.3768966,1190,4.0
Saltillo Mexican Kitchen,29.70336,-95.47523,114,4.0
Foreign Policy,29.7194347381592,-95.4214096069336,123,4.5
Pappasito's Cantina,29.6767729,-95.4155768,280,3.5
Spicy Dog,29.7446994781494,-95.3861083984375,38,4.5
Cactus Cove,29.7888937058758,-95.4367383118961,93,3.5
Pappa Geno's,29.744143,-95.3881679,44,4.5
King's Court Bar And Kitchen,29.7512819590405,-95.3539982488742,74,3.5
Piatto Ristorante,29.737821,-95.459841,122,4.0
Pappadeaux Seafood Kitchen,29.676789,-95.41655,325,3.5
El Big Bad,29.76127624718,-95.3626658767462,608,3.0
Electric FeelGood,29.749235,-95.378434,65,2.5
The Houston Club,29.7588592,-95.3674515,26,4.0
Coterie,29.7629756,-95.3634958,43,4.5
Coreanos,29.7497264,-95.3772903,387,4.0
Nino's,29.757238682246,-95.3954217327958,127,3.5
Vibrant,29.74455,-95.40574,203,4.0
Connie's Seafood,29.81088,-95.38235,169,4.0
McCormick & Schmick's Seafood & Steaks,29.7545947,-95.3651683,319,3.0
Goode Company Barbeque,29.7270351632195,-95.4184110074096,1117,3.5
Boombox Taco,29.773064,-95.332343,40,4.5
Green Seed Vegan,29.7303089346866,-95.3765309942689,609,4.0
Plonk! Beer & Wine Bistro,29.8284049,-95.4302624,336,4.0
Candy Shack Daiquiris,29.7702529329864,-95.4130134465169,43,4.0
Flying Fish,29.80246,-95.4125,138,3.5
Beer Market Co. Midtown,29.7420041907991,-95.379702776636,136,3.5
Romano's Pizza,29.7544062271704,-95.4004679195084,420,4.0
Poke In The Bowl,29.7097666,-95.4020586,22,4.5
Guard and Grace,29.7575888214359,-95.370075814426,2,5.0
Common Grounds Uncommon Coffee,29.7549054637528,-95.3612308949232,14,5.0
Poke In The Bowl,29.74425,-95.38821,181,4.5
Pokeworks,29.741579,-95.409034,216,4.5
Pepperoni's - Montrose,29.7453,-95.3916,367,4.0
Kim Son,29.7452583312988,-95.3596115112305,429,3.0
Nom Mi Street,29.72768,-95.36291,167,4.5
T & T Seafood,29.8636646,-95.4131367,24,4.5
The Phoenix On Westheimer,29.74249,-95.40771,227,3.5
Pappadeaux Seafood Kitchen,29.734771,-95.416465,428,3.5
Khyber North Indian Grill,29.734772,-95.41721,311,4.0
Mattie's Catfish Kitchen & More,29.80086,-95.3097499,23,4.0
Michiru Sushi,29.729959,-95.436875,307,4.0
Chicago Italian Beef & Pizza,29.802709,-95.382171,343,3.5
Blue Nile,29.7375819062313,-95.426522682209,79,4.0
Pepper Tree,29.7324851,-95.438713,446,4.0
Oh My Gogi  Market Square,29.76226,-95.36176,4,4.0
Cedar Creek Bar & Grill,29.80349,-95.41771,695,3.5
Inferno Pizza,29.74549,-95.45432,107,4.5
Miller's Cafe,29.8218643,-95.4103751,142,4.0
Boudreaux's Cajun Kitchen,29.72298,-95.459121,181,3.5
The Black Labrador,29.7360206753874,-95.3915599651666,330,3.0
Boomtown Coffee Main St. Café & Bar,29.7621907333786,-95.3609955310822,88,4.0
Island Grill,29.7170844423813,-95.4142375909825,85,4.0
Niko Niko's Greek & American Cafe,29.7630777,-95.3624346,222,4.0
Antojitos Salvadorenos,29.73295,-95.32795,18,4.0
Sumo Hibachi & Sushi Bar,29.7290369,-95.4301728,30,4.0
Sunshine's Health Food Store And Vegetarian Deli,29.69974,-95.38054,410,4.5
Doshi House,29.7326252,-95.3662922,363,4.5
Burganic Hub,29.73733533,-95.4763745,93,4.5
Sleepy's Po-Boys,29.679671,-95.42486,337,4.0
Green Vegetarian Cuisine,29.7068261375452,-95.4765787190491,473,4.0
Davis St at Hermann Park,29.7155786002702,-95.3809158306885,140,3.5
Moku Bar,29.7603502514673,-95.3615838417335,129,4.5
El Taconazo,29.79624,-95.36723,189,4.5
J & J Lounge,29.7819691,-95.3363037,19,4.0
Local Pho,29.770309,-95.381399,186,4.0
100% Taquito,29.7291112,-95.429681,477,4.0
High Dive,29.754551,-95.3582,8,4.0
P.F. Chang's,29.7421239645077,-95.4475289583206,308,3.0
Shan Hu Chinese Restaurant,29.67197,-95.28223,131,4.0
Cherry Block,29.761515,-95.362266,25,4.0
The Pearl Restaurant and Bar,29.76005,-95.36025,38,4.0
Eugene’s Gulf Coast Cuisine,29.74807,-95.40767,343,3.5
bellagreen,29.738244,-95.415371,236,4.0
Oddball Eats,29.7586595383299,-95.3639031509986,53,4.5
Southside Flying Pizza,29.7579529422108,-95.3473058715463,8,4.5
District 7 Pizzeria,29.746999,-95.358019,115,4.0
Sambuca,29.760608,-95.362771,468,3.0
Verandah,29.735542,-95.418806,49,3.5
Tropicales,29.72583,-95.41034,134,4.0
Marchese's Take-Home Kitchen,29.8409739831322,-95.4192708805203,25,5.0
Shake Shack,29.74496,-95.39209,139,3.5
Captain Crawfish,29.78934,-95.46751,68,4.0
Bubble Egg Garden Oaks,29.81675,-95.42858,20,4.5
Mannie's Seafood,29.669367,-95.263426,124,4.0
Perry’s Steakhouse & Grille - River Oaks,29.75278,-95.40821,68,4.0
Teotihuacan Mexican Cafe,29.79901,-95.38211,587,4.0
Al Quick Stop,29.750144,-95.396713,243,4.5
Brooklyn Meatball,29.757522,-95.365165,153,4.5
Wokker,29.76367,-95.36078,43,4.0
Tamales Don Pepe,29.67714,-95.43921,139,4.5
Pat Greer's Kitchen,29.755708,-95.387011,99,4.5
The Purple Flour,29.82168,-95.42229,23,5.0
Lupe Tortilla,29.7319201223644,-95.4167838585085,484,3.5
Safina,29.7082022615957,-95.4041817784309,22,3.5
Hopdoddy Burger Bar,29.803699,-95.4051727,145,3.5
Joe's Cafe,29.8221054077148,-95.3415222167969,11,4.5
Barnaby's Cafe,29.7633117622313,-95.3622356746475,130,4.0
Pi Pizza,29.7733824717744,-95.3979023918509,373,4.0
Shake Shack,29.7156618,-95.4182541,249,3.5
Vieng Thai,29.8027407,-95.4710047,455,3.5
MAX's Wine Dive,29.7708299,-95.4090042,1081,3.5
#1 Chicken Rice & Seafood,29.72796,-95.37673,149,4.0
Blood Bros. BBQ,29.705155,-95.475517,162,4.5
Pokeworks,29.7746128237454,-95.3981831523353,285,4.5
Shake Shack,29.7396529991527,-95.4628195613623,409,3.5
M&M Hamburger,29.738089,-95.305643,45,4.5
Houston's Famous Deli,29.6851238,-95.399255,149,4.5
Alexander The Great,29.7351103163519,-95.4657626152039,212,3.5
Pink's Pizza,29.722725,-95.337282,147,3.5
Oliva Wood Fired Pizza,29.724704,-95.447462,12,5.0
Guadalajara's Deli,29.8158638905162,-95.3614846989512,3,4.5
Dish Society - Finn Hall,29.75887,-95.36381,47,4.0
Wing Quarter,29.702627,-95.3564683,113,3.5
Taqueria Los Mexicanos,29.7412,-95.32155,16,5.0
Sable Gate Winery,29.74584,-95.37545,92,4.0
MOD Pizza,29.7748165130615,-95.3828125,141,4.0
Auntie Chang's Dumpling House,29.741505,-95.4106051,358,3.5
El Rey Taqueria,29.7703123482813,-95.409279879135,611,4.0
Porch Swing Pub,29.7700586415939,-95.3976507981124,196,3.5
That Funnel Cake Place,29.7259263,-95.3779855,9,4.0
Mama's Seafood,29.8592376,-95.3362618,29,4.5
Star Pizza,29.7700571,-95.3961846,437,3.5
Seco's Latin Cuisine,29.722505569458,-95.4181594848633,162,4.0
Champ Burger,29.7496832,-95.3404681,198,4.5
Dot Coffee Shop,29.701056,-95.2951,478,4.0
Sonora Tacos & Hotdogs,29.7340223592819,-95.4057270660996,33,4.5
Agora,29.74298,-95.40257,1115,4.0
Vincent's Restaurant,29.7572382989492,-95.395042765765,173,3.5
Jollibee,29.693498,-95.414648,501,3.5
Awesome Bites Co,29.770166,-95.381656,34,5.0
The Barking Pig,29.806879,-95.429473,233,3.5
Tapester's Grill,29.6896,-95.45222,330,4.0
Lupe Tortilla,29.77462,-95.40987,302,3.5
Thai Cottage Greenway,29.732169,-95.44107,329,3.5
La Colombe d'Or Hotel,29.74162,-95.39172,39,4.0
Baoz Dumpling,29.7559184,-95.3640146,87,4.0
Los Tios - San Felipe,29.74921,-95.46599,45,4.0
Down House,29.80216,-95.3995,1082,3.5
Arabella Mediterranean Cuisine,29.7577299875209,-95.3649598360062,44,4.0
Pizaro's Pizza Napoletana,29.7535202961773,-95.391941841606,321,4.0
Torchy's Tacos,29.7439741087109,-95.4106315819274,1350,4.0
Khun Kay Thai Cafe,29.7556184,-95.3919551,447,3.5
Strato 550,29.7546050769049,-95.3698692843318,7,4.0
Yoshi,29.7060849661737,-95.4421059514623,59,4.0
Lucky's Pub,29.75247,-95.35426,246,3.5
Mango Tree Thai Bistro,29.7580285779106,-95.3651696945122,260,3.5
The Empanada Company,29.8152729773746,-95.4460131931082,84,4.5
The Waffle Bus,29.80249,-95.41039,370,4.0
Baran's Cafe,29.7322624465591,-95.4394702613354,24,4.5
Navy Seafood,29.734037399292,-95.3649826049805,14,4.5
Retrospect Coffee Bar,29.7359088,-95.3752621,212,4.5
Barnaby's Cafe,29.750452,-95.410401,675,4.0
Bisou,29.741911,-95.453213,255,3.0
Kim Tai Restaurant,29.74481,-95.37352,197,4.0
Costa Brava Bistro,29.705102,-95.468217,175,4.5
Corelli's Italian Cafe,29.7380757,-95.4752726,117,4.0
Soma Sushi,29.7707939147949,-95.410026550293,643,3.5
Nundini Chef's Table,29.78044,-95.40868,273,3.5
Lyons Cocina de Chinos,29.77639,-95.29861,11,4.5
Pokeworks,29.690896,-95.415987,22,4.5
Los Meros Tacos  Y Su Trompo Tribalero,29.92515,-95.49706,54,4.5
Fajita Pete's - Bellaire,29.706874,-95.4408008,166,4.0
Alfred's Burger House,29.73457,-95.32989,83,4.0
True Dog Houston,29.7055619,-95.4470077,10,4.0
Melange Creperie,29.783904,-95.398147,425,4.0
Walker Street Kitchen,29.7542260565125,-95.3576432125897,68,3.5
Chicken Kitchen,29.7175449,-95.4174146,140,4.0
5411 Empanadas,29.7592707401387,-95.3662825000605,85,4.5
Green Fork & Straw,29.74197,-95.41101,28,5.0
Doozo Dumplings & Noodles,29.7550821443562,-95.3625297546387,177,3.5
Polanquito,29.76628,-95.40922,121,4.5
We Olive & Wine Bar,29.80319,-95.40097,38,4.5
Brasserie 19,29.7531949,-95.40723,572,3.5
Third Coast,29.709431,-95.397966,57,4.0
Armandos,29.7424191949249,-95.419751389412,149,3.5
J & J Fish Market,29.67993,-95.4392699,107,4.0
Cafe#13,29.74512,-95.37747,29,4.5
Big City Wings,29.785494,-95.4637432690388,161,3.0
Saltgrass Steak House,29.7520006,-95.3576434,10,3.0
Cyclone Anaya's Mexican Kitchen,29.7188917,-95.4149864,212,3.5
Boheme,29.747997,-95.386062,917,3.5
Best Street Tacos,29.75308,-95.37717,4,4.5
Pub Fiction,29.7488288879395,-95.376106262207,118,3.0
Escalante's Fine Tex-Mex & Tequila,29.6887331780424,-95.4600315886078,214,3.5
51fifteen Cuisine and Cocktails,29.7396291893183,-95.4655621379593,320,3.5
Isles Eatery & Rhum Bar,29.74914,-95.3643,50,3.5
Common Bond Cafe & Bakery,29.7071605,-95.4122665,92,4.0
Seafood Kitchen,29.741707,-95.304206,7,5.0
Heights Asian Cafe,29.80626,-95.3995599,474,4.0
Ekko's Greek American Deli,29.7319700519874,-95.4678809811299,204,4.0
Lucky Strike,29.753736,-95.364351,268,3.0
Adair Kitchen,29.748991,-95.466573,830,4.0
She Trappin',29.72275,-95.37847,1,5.0
Two Brothers Smokin Oak Kitchen,29.67293,-95.4445,23,5.0
Taqueria Abasolo,29.77786,-95.35739,28,4.0
Pappas Shrimp Shack,29.70287,-95.29703,4,4.5
Flamingo Chill,29.8584463,-95.3841135521496,62,4.0
Teotihuacan Mexican Cafe,29.8026448,-95.360804,111,4.0
Ruth's Chris Steak House,29.7385746983004,-95.471458286047,290,3.5
"Snooze, an A.M. Eatery",29.7419347444059,-95.4619659195996,165,4.0
Tout Suite,29.7586713680944,-95.3505267137113,1422,3.5
Pondicheri,29.741538,-95.419487,1058,3.5
The Burger Palace,29.7373403318794,-95.468168980426,465,3.5
Benihana,29.75612,-95.36964,344,2.5
Pondi,29.7263,-95.38462,6,4.0
Treebeards,29.75527,-95.36304,34,4.0
Cadillac Bar,29.776495,-95.409039,334,3.5
Azuma Sushi & Robata Bar,29.760401,-95.36288,260,3.5
Smoke N Honey House,29.798697,-95.2727780118585,57,2.0
Thai Pepper,29.7382850646973,-95.41015625,190,3.5
Viet's Express,29.69174,-95.41226,72,4.0
Diana American Grill,29.7621240826933,-95.3697948530316,34,3.0
Thai Spice,29.8027051,-95.4052847,213,3.5
Simply Pho,29.7438866872047,-95.3777434239426,504,3.5
Saint Dane's Bar & Grille,29.74386,-95.38126,388,3.5
Nickel Sandwich Grill,29.77669,-95.3148,59,4.0
Empire Cafe,29.742905,-95.403542,1514,4.0
Hubcap Grill,29.80303,-95.41939,498,3.5
Thien An Sandwiches,29.7436923980713,-95.3724594116211,318,4.0
Roma's Pizza,29.7622972702036,-95.3604543885001,107,4.0
Cafe El Caracol,29.77274,-95.33152,2,5.0
Farmer's Fresh Meat,29.667317,-95.355837,87,4.5
Cyclone Anaya's Mexican Kitchen,29.775767,-95.410429,402,3.5
Little Napoli Italian Cuisine,29.7627097,-95.3673287,317,2.5
Sam's Fried Chicken & Donuts,29.78171,-95.3979,87,3.5
Treebeards - The Tunnel,29.7576484680176,-95.3688583374023,80,4.0
Baggy's Grill,29.73911,-95.44215,23,5.0
The Tuck Room,29.7434071269146,-95.4530692245369,141,3.5
Dinner Bell,29.7254123687744,-95.3119049072266,36,4.0
The Original Ninfa's Uptown Houston,29.7493275,-95.4622631,93,3.0
LaMacro,29.79955,-95.37247,33,4.0
Mucho Mexico Restaurante,29.7731308739162,-95.2910272527786,52,3.5
Kim Chau Restaurant,29.80337,-95.47002,196,4.0
Hungry Farmer Barbeque,29.82807,-95.37868,104,3.5
Cultivated F+B,29.7614892981795,-95.3647442534566,11,4.0
Alicia’s Tamale Kitchen,29.81584,-95.3614684,2,5.0
La Casita Mexican Products,29.738445,-95.297462,15,5.0
The Original Timmy Chan,29.6842,-95.34067,28,4.0
Tayeb Mandi and Mediterranean Grill,29.6841,-95.39154,54,4.0
Torchy's Tacos,29.7168832286535,-95.4151740753937,919,4.0
Southern Slider Company of Texas,29.78093,-95.35919,8,4.5
Home Plate Bar & Grill,29.75552,-95.3555499,143,1.5
Napoli Wine Cafe,29.770219,-95.407797,5,4.0
Suko's Burger House,29.7476,-95.32646,27,4.5
Java Lava Brew,29.7274883509414,-95.3855465153081,199,4.5
Pappas Bar-B-Q,29.74853,-95.36857,240,3.0
Thai Spice,29.7196974,-95.4165551,211,3.5
B&T Cafe,29.73829,-95.40848,202,4.5
Chutney Bowl,29.752332,-95.37698,3,4.5
Tako Poké,29.7312966701704,-95.475278,122,4.5
Hobbit Cafe,29.7340113,-95.4140505,915,3.5
Quattro Restaurant,29.75401,-95.36277,196,4.0
Real Deal Fast Foods,29.82213,-95.31818,5,4.5
Gotham Pizza,29.74949,-95.37508,232,3.5
Cafe Layal Midtown,29.75299,-95.37782,353,3.5
Chicken Plus,29.81867,-95.28418,47,4.0
House of Blues Restaurant & Bar,29.7538392,-95.3637491,80,3.5
Birraporetti's,29.76224,-95.36491,382,3.0
Red Robin Gourmet Burgers and Brews,29.7853092015248,-95.4636254798127,199,3.0
Toulouse Café and Bar,29.7429754553105,-95.4536611586809,272,3.0
M3 Pizza,29.705232,-95.441753,64,4.5
Red Hot Noodle,29.7980299704962,-95.368289457025,20,3.0
Pho Le,29.83878,-95.47359,113,4.5
Skeeter's Mesquite Grill,29.7228001,-95.4411151,87,3.5
La Tapatia,29.733987762565,-95.4041789475105,358,3.5
Sinfull Bakery,29.74382,-95.36563,62,4.5
Shake Shack,29.757726,-95.354546,34,3.5
Mcgonigel's Mucky Duck,29.7326589,-95.4170689,171,4.0
Poppa Burger,29.77409,-95.36035,50,3.5
Honey Art Cafe,29.7348654,-95.4108216,247,3.5
Sage 400,29.7375,-95.46763,282,3.5
Heavenly Choices,29.79988,-95.33299,8,4.0
Doggie Style Hot Dogs,29.75599,-95.36825,16,4.5
Tacos Aracely's,29.8374,-95.36187,35,4.5
Le Creole La Vie,29.8050594329834,-95.4225769042969,4,5.0
Bare Bakery,29.73604,-95.4319,15,5.0
Fiesta En Guadalajara,29.7930030822754,-95.3605804443359,84,3.0
Pollo Bravo,29.761028921268,-95.4204111108765,49,4.0
sweetgreen,29.7156496,-95.4175305,62,3.5
Soul Kitchen Delivers,29.7661399841309,-95.3648834228516,1,5.0
Banh Milicious,29.67302,-95.28098,11,4.5
Cali Sandwich & Pho,29.743672275081,-95.3772476952765,454,4.0
Calcio Cafe,29.7734636,-95.3805508,20,4.5
Spaghetti Western,29.802631210278,-95.4327419183379,92,3.5
Cafe Ginger Uptown,29.7433045,-95.4621364,120,4.0
Prima Pasta,29.7054576873779,-95.4179534912109,192,3.5
Houston's This Is It Soul Food,29.723039,-95.3696922,286,3.5
Just Falafel,29.7579460661911,-95.3710331123032,49,4.0
Little Bitty Burger Barn,29.840745,-95.470046,264,3.5
Salsas Mexican Grill,29.8040734,-95.4124178,74,4.0
Laredo Taqueria,29.77011,-95.4051,513,4.0
Alamo Tamale & Taco,29.83797,-95.3648599,129,4.0
Treebeards,29.76012,-95.3656,39,4.0
The Hot Bagel Shop,29.747719835001,-95.4103392342872,567,4.5
Mellow Mushroom,29.8034992218018,-95.4105834960938,352,3.5
Puebla's Mexican Kitchen,29.808234,-95.389334,179,4.5
Boil House,29.790512,-95.391643,332,4.5
Harrisburg Country Club,29.7468357086182,-95.3393936157227,10,4.5
Live Oak Grill,29.8057,-95.4649699,135,3.5
The Manor House,29.769047,-95.459961,8,4.0
Poke Inn,29.68953,-95.46228,88,4.0
Chapultepec Lupita,29.73436,-95.38932,281,3.5
Field of Greens,29.73876,-95.4157199,284,4.0
Sweet Paris Crêperie & Café,29.7416028,-95.4453124,72,4.5
"CoCo Crepes, Waffles & Coffee - Rice Village",29.71481,-95.41435,303,4.5
Olive Garden Italian Restaurant,29.729419,-95.425071,162,3.0
San Vuon Cafe,29.6821819482598,-95.2733026269771,10,4.5
JodyCakes,29.78093,-95.35919,30,4.5
Akashi Asian Sushi Cuisine & Wine Bar,29.6914752582579,-95.4131117723453,196,4.0
Two Guys Pizzeria,29.7065174112828,-95.4116013935114,211,3.5
Saltgrass Steak House,29.7765833,-95.4098238546158,139,3.0
Tacos Tec Lo Mejor De Monterrey,29.6727,-95.26375,75,4.0
Golden Seafood House,29.80863,-95.38248,147,3.5
Cream Burger,29.7282764,-95.3506671,75,3.5
Padthai Restaurant,29.76253,-95.36397,77,3.5
Mama's Oven,29.6840393543243,-95.4223664849997,203,3.5
Morningside Thai,29.69593083,-95.41619633,213,3.5
Luchi & Joey's,29.75773,-95.36496,16,4.0
E-Tao,29.73743,-95.46344,331,3.5
Pier 16 Crawfish & Wings,29.8317,-95.38054,8,4.5
Monarch,29.7242284677231,-95.3902316093445,220,3.5
Prego,29.7160143601348,-95.4175163136998,266,3.5
burger-chan,29.7307402490013,-95.4318419,123,4.5
Zutro Restaurant & Bar,29.75698,-95.36271,23,4.0
Mona Fresh Italian Food -Downtown,29.759444,-95.3648084,10,3.5
Yong,29.75887,-95.36381,47,3.5
Brasil,29.74255,-95.40225,1153,3.0
Chef On The Run Halal,29.6933756544385,-95.4156259580266,118,4.5
El Taco Man,29.8048036558132,-95.3785737690445,13,5.0
Taconmadre,29.77828,-95.2934,53,4.0
Campesino Coffee House,29.7459888458252,-95.3941802978516,371,4.5
Common Bond Cafe & Bakery,29.7428969,-95.4023708,1966,4.0
Dimassi's Mediterranean Buffet,29.732611265307,-95.4659654641462,113,4.0
Tacos A Go Go,29.781857507123,-95.3900327670036,436,4.0
Vietopia,29.7268397660947,-95.4292001041612,288,3.5
Fia’s Pizzeria,29.723953,-95.387837,6,4.0
1600 Bar + Grille,29.7521537722332,-95.3608405111303,31,3.0
Boudreaux's Cajun Kitchen,29.700349,-95.296031,75,3.0
Fajita Pete's - Garden Oaks,29.82921,-95.4307892245369,13,4.0
Taqueria El Rojo Loco,29.7941195,-95.3410278,16,4.0
Juicy Crawfish,29.6686454906692,-95.461543578268,101,3.5
Capt Benny's,29.690912,-95.417684,282,3.5
Cafe TH,29.7458283,-95.3595304,283,4.0
Alamo Tamale & Taco,29.7586078643799,-95.3467636108398,96,4.0
Low Tide,29.7587652964214,-95.3638249263167,32,3.5
Poke Fresh,29.758113,-95.369927,17,4.0
Star Chef Dumpling House,29.75744,-95.36518,49,4.0
Candelari's Pizzeria,29.705848,-95.419186,221,3.5
Taqueria La Creacion,29.7332735659396,-95.3757746193653,12,5.0
Brooklyn Meatball,29.7549739,-95.3626406,32,4.5
Raising Cane's Chicken Fingers,29.7428036551851,-95.4073392037664,104,3.5
Muscle Maker Grill - Houston,29.80814,-95.40989,12,4.0
Enoteca Rossa,29.7144304,-95.4548667,178,4.0
Tampico Seafood,29.80664,-95.38221,108,3.5
Little Jimmy's Deli,29.7322350492429,-95.439678567862,220,4.5
Southwell's Hamburger Grill,29.7745944,-95.3816432,111,3.5
Tia Maria's,29.8069049,-95.4575466,259,3.5
Smashburger,29.694601,-95.413506,318,3.5
Soul Taco,29.8106235725603,-95.4116054624319,28,4.5
FM Kitchen and Bar,29.7714,-95.40916,277,3.5
One Fifth Gulf Coast,29.7430325122135,-95.4016041755676,28,4.0
Son Nam Restaurant,29.700257135863,-95.2956576767212,120,3.5
Morton's The Steakhouse,29.7417957546011,-95.4617908225555,203,3.5
Frozen Paradise,29.7215983746891,-95.3674137219787,5,5.0
Black Market Burritos,29.73492,-95.37477,14,4.5
Cousins Maine Lobster - Houston,29.54007,-95.12455,264,3.5
Maggie May's Coffee,29.8023898948468,-95.4110998660326,39,4.5
Shula's Steak House,29.7564948519777,-95.3693863037845,136,3.0
Brother's Pizzeria,29.821434,-95.409732,146,4.0
EggHaus Gourmet,29.80414,-95.42722,354,4.0
Bernie's Burger Bus,29.70486,-95.47528,1074,4.0
Arnaldo Richard's Picos,29.7337646484375,-95.4180526733398,661,3.5
Zero's Sandwich Shop,29.7578834660823,-95.3699240156676,68,4.5
Victorian's Barbecue,29.7604267,-95.3698028,7,4.5
Alma Latina,29.8061065673828,-95.4104537963867,219,3.5
Angela's Oven,29.80957,-95.39725,176,4.5
The Lexington Grille,29.73144,-95.40985,79,4.0
Sweet Paris Crêperie & Café,29.717649,-95.4158516,956,4.0
The Tasting Room,29.7570501352962,-95.4574146438187,343,3.5
BurgerIM,29.73437,-95.41097,57,4.0
Seaside Lounge,29.758052,-95.375538,41,2.0
Merida Restaurant,29.7583485,-95.3439636,100,3.5
True Bark BBQ,29.73843,-95.40781,3,5.0
Pyburn's Farm Fresh Foods,29.686554,-95.363161,20,4.0
Doneraki Restaurants,29.6996551203043,-95.2941609086306,163,2.5
Onion Creek Cafe,29.7818298339844,-95.3910217285156,792,3.5
Jake's Sports Bar,29.7347417,-95.4770214,175,3.5
Christian's Tailgate Bar and Grill,29.752572734781,-95.376317416484,361,3.0
Pho Noodle Express,29.7550296098345,-95.3626717121948,40,4.0
George's Pizza & Italian Cuisine,29.684696826131,-95.2940165599106,38,4.0
CRÚ Food & Wine Bar - West Ave,29.7410533388305,-95.4195337513442,140,3.5
The Backyard Grill,29.9094292,-95.584844,256,3.5
The West End,29.739853,-95.47045,435,3.0
Saltgrass Steak House,29.686183,-95.459863,255,3.5
Tony's Mexican Restaurant,29.8064484785172,-95.4288773423769,284,3.5
Garden Kitchen,29.67173,-95.43303,51,4.0
Nam Eatery,29.8038379159858,-95.3930600768915,189,4.0
Happy Endings,29.7141024424722,-95.4285985944077,72,4.0
Lindiana's Southern Vegan Kitchen,29.72582,-95.364,48,3.5
Bohemeo's,29.7349007,-95.3311879,179,4.0
Belle Station,29.75294,-95.37782,214,3.0
La Fresca Pizza,29.7076867,-95.4180686,153,4.0
Eric's Restaurant,29.7191743208999,-95.3410169961714,54,3.5
Wild Kitchen,29.686661,-95.440532,95,4.0
La Guadalupana Bakery & Café,29.74687,-95.40188,545,4.0
The Library Coffee and Wine House,29.73221,-95.34897,41,4.0
Barnaby's Cafe,29.78185,-95.38907,257,4.0
Taqueria Chabelita,29.75016,-95.32171,10,4.5
The Flying Dumpling,29.7191751782205,-95.3376577815767,4,4.5
Sushi King,29.7351445677162,-95.4183805481323,356,3.5
EaDeaux's,29.74245,-95.35135,7,4.0
Acadian Bakery,29.7389949,-95.386745,103,4.0
Local Poke - W 34th St,29.81689,-95.43032,23,4.5
Flip 'n Patties Food Truck,29.748882,-95.6244796,210,4.5
Ate Kitchen,29.73497,-95.40577,1,5.0
Satellite of Pizza,29.7605800628662,-95.3696823120117,15,5.0
Shake shack,29.7590177963367,-95.3635747323803,16,3.5
Azuma Sushi & Robata Grill,29.7215357026307,-95.4188752231679,251,3.5
La Reynera Bakery,29.74199,-95.33704,41,4.5
Laredo Taqueria,29.82236,-95.36095,16,4.5
Pizza Birra Vino,29.759902,-95.39856,11,4.0
Vinny's,29.749282084291,-95.3567609935999,75,3.5
East Hampton Sandwich,29.743455,-95.453462,130,3.5
Mytiburger,29.8324947,-95.4510516,168,4.0
Chinese Seafood Plus,29.707344,-95.4759295,81,4.0
Buffalo Wild Wings,29.76961,-95.400344,186,3.0
Pho Now,29.84519,-95.39113,27,4.5
MC's Barbecue,29.8098730215812,-95.3267430514097,11,4.0
Por Mis Cazuelas,29.73409,-95.3292,9,4.5
Samburger Grill & Daiquiris to Go,29.77672,-95.30805,26,4.0
La Fresca Pizza,29.8037365,-95.4010317,75,4.0
Arte Pizzeria,29.7603952240977,-95.3617066517472,32,4.0
Best Made Hamburgers,29.84035,-95.33681,9,4.5
Bombshells,29.7705650003273,-95.3333450003682,20,2.5
Live Oak Lounge & Grill,29.72028,-95.37326,51,3.0
Sushi Wabi,29.7326876,-95.4408211,403,3.5
Jenni's Noodle House,29.80377,-95.39206,257,3.5
Mucho Mexico Cafe And Bakery,29.8030223846436,-95.2658081054688,11,4.0
Fellini Caffè,29.718743376273,-95.4166178981476,403,4.0
Craft Burger,29.7589689384056,-95.3637235553302,16,3.5
Super La Mexicana,29.67308,-95.44022,162,4.0
LA Crawfish,29.732211,-95.440918,415,3.0
El Novillo Restaurant,29.776442,-95.361137,4,5.0
Edgar's Hermano,29.7537,-95.37322,45,3.5
Los Perros,29.7705,-95.40374,70,4.0
CC's Creole Corner,29.7605800628662,-95.3696823120117,3,5.0
Brianna's Restaurant,29.8549149123967,-95.4726900110469,26,4.5
Collina's Italian Cafe,29.7323433828409,-95.4397344589233,228,3.5
Bullritos,29.7544915,-95.36198,32,4.0
