Name,Latitude,Longitude,Votes,Rating,Type,City
Gen Korean BBQ House,29.742687,-95.379709,108,4.5,indian,houston
Ritual,29.78193,-95.38735,1354,4.0,indian,houston
Ambrosia,29.731809,-95.409689,899,4.0,indian,houston
Traveler's Table,29.7447631258091,-95.3880459442735,60,4.5,indian,houston
The Rustic,29.7502708,-95.3595825,485,4.0,indian,houston
Oporto Fooding House & Wine,29.7531384239378,-95.3802139853275,943,4.5,indian,houston
The Pit Room,29.7342352703345,-95.3939679771603,1651,4.5,indian,houston
Nancy's Hustle,29.74551,-95.3520999,517,4.5,indian,houston
Bosscat Kitchen & Libations,29.7418,-95.450518,1616,4.5,indian,houston
Studewood Cantine,29.79147,-95.38829,79,4.5,indian,houston
La Lucha,29.80193,-95.41033,277,4.5,indian,houston
Hearsay Market Square,29.763046,-95.3615717,1663,4.0,indian,houston
State of Grace,29.7424624840221,-95.4252861972305,640,4.5,indian,houston
North Italia,29.7485868638914,-95.4620253208921,1520,4.0,indian,houston
Kulture,29.7545999989511,-95.3567959944427,315,4.0,indian,houston
Steak 48,29.741784,-95.454529,1044,4.5,indian,houston
Lucille's,29.72388,-95.38515,829,4.0,indian,houston
The Blind Goat,29.76156,-95.36228,152,4.0,indian,houston
JINYA Ramen Bar,29.742755,-95.379845,2780,4.5,indian,houston
Nobie's,29.73536,-95.41004,363,4.5,indian,houston
Guard and Grace,29.7575888214359,-95.370075814426,8,4.5,indian,houston
Peli Peli,29.7397965769971,-95.4640101607907,1649,4.5,indian,houston
Sixty Vines,29.7160551435419,-95.4172210115955,76,4.5,indian,houston
One Dim Sum,29.75076,-95.37554,107,3.5,indian,houston
Postino Montrose,29.74651,-95.39033,66,4.5,indian,houston
Ruggles Black,29.7313688242292,-95.4180035698364,546,4.0,indian,houston
BCK,29.7887995448524,-95.388083953373,784,4.5,indian,houston
Grotto Downtown,29.7539178,-95.3571966,324,4.0,indian,houston
Squable,29.802594,-95.409436,105,4.5,indian,houston
Conservatory,29.76038,-95.36162,487,4.5,indian,houston
Shun Japanese Kitchen,29.74042,-95.41089,253,4.5,indian,houston
Coltivare,29.7817,-95.39371,831,4.0,indian,houston
Pinkerton's Barbecue,29.79868,-95.3815,638,4.5,indian,houston
Hearsay on the Green,29.752967,-95.361335,473,4.0,indian,houston
L&L Hawaiian Barbecue,29.7746655,-95.397958,27,4.5,indian,houston
Mico’s Hot Chicken,29.7364923677041,-95.476171,213,4.5,indian,houston
Eunice,29.7323075,-95.4278721,214,4.5,indian,houston
Rodeo Goat,29.749827,-95.356385,505,4.5,indian,houston
Crisp,29.8062839508057,-95.4220886230469,856,4.0,indian,houston
Yoyo's Hot Dog,29.7162012025613,-95.4146640004135,750,4.5,indian,houston
Gyu-Kaku Japanese BBQ,29.7505917766388,-95.3753622367706,1351,4.0,indian,houston
Bollo Woodfired Pizza,29.7389786,-95.4134581,580,4.5,indian,houston
Edison & Patton,29.79839,-95.36316,453,4.0,indian,houston
On The Kirb,29.7275609954157,-95.4188848876245,449,4.5,indian,houston
Merus Grill by J. Alexander's,29.75537,-95.45831,11,5.0,indian,houston
1751 Sea and Bar,29.77387,-95.39795,162,4.5,indian,houston
Street Food Thai Market,29.80417,-95.38505,269,4.5,indian,houston
The Original Ninfa's on Navigation,29.75667,-95.3427,1333,4.0,indian,houston
MAD,29.743755,-95.453037,176,4.0,indian,houston
Hu's Cooking,29.70645,-95.41693,225,4.5,indian,houston
Uchi,29.74493,-95.39091,1822,4.5,indian,houston
Tiger Noodle House,29.717709,-95.416064,213,4.5,indian,houston
Fat Bao,29.7351499099632,-95.4181346297265,1568,4.0,indian,houston
Osso & Kristalla,29.7574509,-95.3579026,243,4.0,indian,houston
benjy's,29.719421,-95.416392,1126,4.0,indian,houston
Truck Yard - Houston,29.75017,-95.35589,389,4.0,indian,houston
Asia Market Thai Lao Food,29.7911832,-95.3728234,356,4.5,indian,houston
Irma's Southwest,29.7575897012463,-95.3583053970873,324,4.0,indian,houston
Dream Wings,29.81854,-95.42985,214,4.5,indian,houston
Truth BBQ,29.76892,-95.39742,255,4.5,indian,houston
Gus's World Famous Fried Chicken,29.76753,-95.37655,573,4.0,indian,houston
Potente,29.7572378866031,-95.3574474900742,206,4.5,indian,houston
Pappas Bros. Steakhouse,29.7555094708505,-95.3628793166023,258,4.5,indian,houston
Elliot's Table,29.77962,-95.41845,121,4.0,indian,houston
Savoir,29.79596,-95.39889,34,4.0,indian,houston
Kokoro,29.76156,-95.36228,68,4.5,indian,houston
Wanna Bao,29.74769,-95.38019,407,4.0,indian,houston
La Fisheria,29.7634727117342,-95.3621543826332,528,4.0,indian,houston
Grace's,29.737020211778,-95.4185060876135,820,4.0,indian,houston
Rosie Cannonball,29.7429149,-95.3998577,34,4.0,indian,houston
Hamburger Mary's,29.74768,-95.39075,271,4.0,indian,houston
Masraff's,29.74813,-95.46087,865,4.5,indian,houston
Field & Tides,29.7910957336426,-95.3896789550781,395,4.0,indian,houston
Roost,29.7447265,-95.4073275,529,4.0,indian,houston
Brenner's on the Bayou,29.7595459124491,-95.4199138920306,653,4.0,indian,houston
Lúa Viet Kitchen,29.73893,-95.39912,336,4.5,indian,houston
Candente,29.73415,-95.39313,59,4.0,indian,houston
Huynh Restaurant,29.75179,-95.35552,860,4.0,indian,houston
Bird Haus,29.76036,-95.3615819,82,4.0,indian,houston
Rim Tanon,29.7340213532774,-95.4147996660098,356,4.5,indian,houston
BCN Taste & Tradition,29.7349309,-95.390075,297,4.5,indian,houston
Mia's Table,29.73713,-95.41731,596,4.0,indian,houston
The French Fry House,29.68129,-95.31999,166,4.5,indian,houston
Truluck's,29.7402018410924,-95.4699522711639,718,4.0,indian,houston
Riva's Italian Restaurant,29.74605,-95.39248,517,4.0,indian,houston
La Calle Tacos,29.7634662971423,-95.3606901858526,564,4.0,indian,houston
Izakaya,29.7520078,-95.3768782,588,4.0,indian,houston
Flying Saucer Draught Emporium,29.75882,-95.36315,716,4.0,indian,houston
Zen Japanese Izakaya,29.74762,-95.4103499,210,4.0,indian,houston
Luna Pizzeria,29.7350980889096,-95.4177527502179,888,4.5,indian,houston
Pappadeaux Seafood Kitchen,29.750839,-95.359628,195,4.0,indian,houston
The Hay Merchant,29.74494,-95.39303,995,4.0,indian,houston
rise nº2,29.74999,-95.462702,456,4.5,indian,houston
Relish Restaurant & Bar,29.742346,-95.4211217,152,4.0,indian,houston
Yauatcha,29.740199,-95.462726,669,4.0,indian,houston
Roma,29.7149,-95.41475,74,4.0,indian,houston
Theodore Rex,29.767778,-95.3540249,146,4.5,indian,houston
Preslee’s - Southern Good Eatery,29.80231,-95.42419,44,3.5,indian,houston
Finn Hall,29.758662,-95.363796,189,4.0,indian,houston
Saint Arnold Brewing Company,29.771458,-95.34779,834,4.5,indian,houston
The Turkey Leg Hut,29.7259279609009,-95.377991348505,1017,3.5,indian,houston
MF Sushi,29.723782,-95.385899,502,4.5,indian,houston
Alice Blue,29.8027866863104,-95.4010648693115,202,4.0,indian,houston
True Food Kitchen - Houston,29.749342,-95.462263,961,4.0,indian,houston
LES NOO'DLE,29.752078,-95.3918897,281,4.5,indian,houston
Prohibition Theatre,29.76045,-95.36169,551,4.0,indian,houston
The Rice Box,29.8037,-95.4017,625,4.0,indian,houston
Around the Corner,29.7467267366316,-95.3580480587744,181,4.5,indian,houston
Moxie's Grill & Bar,29.7421763,-95.4623737,558,4.0,indian,houston
JINYA Ramen Bar,29.80336,-95.4052,57,4.5,indian,houston
Perbacco,29.760168,-95.365059,167,4.0,indian,houston
Andes Cafe,29.75829,-95.3464,372,4.0,indian,houston
Blanco Tacos + Tequila,29.7396,-95.465471,319,4.0,indian,houston
The Grove,29.7526501477753,-95.3603514211737,748,3.5,indian,houston
Backstreet Café,29.75533,-95.40863,1316,4.0,indian,houston
Aladdin Mediterranean Cuisine,29.745032,-95.391123,1034,4.5,indian,houston
Kata Robata,29.7335727255874,-95.4194910185242,1422,4.0,indian,houston
Pinstripes,29.7354339,-95.4188049,20,4.5,indian,houston
The Gypsy Poet,29.74416,-95.37029,79,5.0,indian,houston
The Breakfast Klub,29.73843,-95.38048,4291,4.5,indian,houston
Jackson Street BBQ,29.7588636332986,-95.3543785428204,438,4.0,indian,houston
Stanton's City Bites,29.770945,-95.372068,1090,4.5,indian,houston
Dak & Bop,29.721726,-95.382427,1026,3.5,indian,houston
The Moonshiners Southern Table + Bar,29.76056,-95.36188,562,4.0,indian,houston
Nobu Houston,29.74048,-95.46467,243,3.5,indian,houston
Kenny & Ziggy's New York Delicatessen,29.7429019,-95.4608651,1137,4.0,indian,houston
Vic & Anthony's Steakhouse,29.7570194980525,-95.3581523895264,876,4.0,indian,houston
Brennan's of Houston,29.7429008483887,-95.3814392089844,735,4.0,indian,houston
Mama’s Kitchen,29.7323257688598,-95.4388258070098,45,4.5,indian,houston
M&M Grill,29.70125,-95.38558,713,4.5,indian,houston
Olive & Twist,29.73435,-95.42048,51,4.5,indian,houston
Brasserie du Parc,29.7538691044983,-95.3612487998702,226,4.0,indian,houston
Niko Niko's Greek & American Cafe,29.74651,-95.39218,1888,4.0,indian,houston
Xochi,29.754551,-95.3582,702,4.0,indian,houston
Tamashi Ramen and Sushi,29.70642,-95.41726,363,4.5,indian,houston
Grand Lux Cafe,29.7412259641579,-95.4629382423279,857,3.5,indian,houston
Blackbird Izakaya,29.79036,-95.4092,214,4.0,indian,houston
Pepper Twins,29.74806,-95.38634,598,4.0,indian,houston
Spicy Girl,29.7389782,-95.3801068,306,4.0,indian,houston
Better Luck Tomorrow,29.78122,-95.39861,249,4.0,indian,houston
Doris Metropolitan,29.740215,-95.410475,201,4.5,indian,houston
B&B Butchers & Restaurant,29.76807,-95.37628,954,3.5,indian,houston
Eddie V's Prime Seafood,29.7402734338612,-95.4190848558197,618,4.5,indian,houston
Chicken Station,29.73594,-95.30192,161,4.5,indian,houston
Lotti Dotti,29.734293,-95.387233,40,4.5,indian,houston
Riel,29.74456,-95.40489,216,4.0,indian,houston
Moon Tower Inn,29.754284,-95.341073,762,4.0,indian,houston
The Blue Fish,29.7620117022974,-95.3664868883606,840,4.0,indian,houston
Giacomo's Cibo e Vino,29.742032,-95.423718,512,4.0,indian,houston
Local Foods,29.7195096809181,-95.4164240674591,1507,4.5,indian,houston
Mastrantos,29.788228,-95.388072,104,4.5,indian,houston
Songkran Thai Kitchen,29.7565604,-95.4573055,360,4.0,indian,houston
Bistecca,29.744848,-95.383987,190,4.5,indian,houston
Liberty Kitchen & Oyster Bar,29.79058,-95.38753,1076,3.5,indian,houston
City Acre Brewing,29.85699,-95.33508,120,4.5,indian,houston
D'Amico's Italian Market Cafe,29.71598,-95.4153504,368,4.0,indian,houston
Da Marco,29.74313,-95.397814,324,4.0,indian,houston
Dolce Vita,29.744775,-95.38742,711,4.0,indian,houston
La Villa,29.733931,-95.3908263,59,4.5,indian,houston
Mia Bella Trattoria,29.7534684960069,-95.3641167312134,281,4.0,indian,houston
Urban Eats,29.7695392518322,-95.3949268650834,891,4.0,indian,houston
Del Frisco's Double Eagle Steakhouse,29.7399776,-95.4638549,722,4.0,indian,houston
Lucienne,29.7551246407975,-95.3660582005978,65,4.0,indian,houston
B.B. Lemon,29.7674542512049,-95.3761047497392,203,3.5,indian,houston
Taste Bar + Kitchen,29.74529,-95.3813,391,3.5,indian,houston
The Stuffed Baked Potato Factory,29.6871998667623,-95.3411567819705,171,4.0,indian,houston
Rocco's,29.79333,-95.35928,58,4.5,indian,houston
Roka Akor - Houston,29.7387,-95.44081,343,4.5,indian,houston
Roti,29.7092641,-95.4014984,3,5.0,indian,houston
Houston's,29.72891,-95.4189,613,4.0,indian,houston
Bravery Chef Hall,29.76156,-95.36228,51,4.5,indian,houston
Andalucia Tapas Restaurant & Bar,29.753411,-95.364196,488,3.5,indian,houston
MAX's Wine Dive,29.748418,-95.385446,581,4.0,indian,houston
King's Bierhaus,29.8041431,-95.4274122,535,4.0,indian,houston
Aka Sushi House,29.7386449,-95.4161434,1140,4.0,indian,houston
Georgia James,29.7450251168537,-95.393044911325,164,4.0,indian,houston
Ono Poke,29.73431,-95.38741,714,4.5,indian,houston
Hughie's,29.80131,-95.4317,711,4.0,indian,houston
Yokushi Robata,29.7323230077825,-95.4392364666781,216,4.0,indian,houston
Punk's Simple Southern Food,29.7185841228888,-95.4150941883606,560,3.5,indian,houston
Patrenella's,29.76912,-95.4021,348,4.0,indian,houston
Verdine,29.80336,-95.4052,152,4.0,indian,houston
Dish Society,29.79044,-95.39853,428,4.5,indian,houston
Mai's Restaurant,29.7411156,-95.3798064,1019,3.5,indian,houston
Tiny Boxwoods,29.73851,-95.43509,1211,4.0,indian,houston
Fig & Olive - Houston,29.7396908,-95.4652897,271,4.0,indian,houston
Blue Onyx Bistro,29.733347807236,-95.456397757844,321,4.5,indian,houston
Penny Quarter,29.743103,-95.396913,47,4.5,indian,houston
LES BA'GET,29.81675,-95.42858,124,4.0,indian,houston
Thai Cafe,29.76335,-95.36025,84,4.5,indian,houston
Julep,29.7676141,-95.3779718,336,4.0,indian,houston
Warehouse 72,29.785959,-95.465455,88,4.0,indian,houston
Hughie's,29.79774,-95.38316,169,4.5,indian,houston
Tamashi Ramen and Sushi,29.7884065,-95.4678997,408,4.5,indian,houston
The Classic,29.77125,-95.42139,257,4.5,indian,houston
The Gyro Grill Guys,29.743904,-95.364636,216,4.5,indian,houston
Seasons 52,29.7415521341054,-95.4521601294998,566,4.0,indian,houston
Anonymous Cafe,29.733156,-95.41801,82,5.0,indian,houston
BOH Pasta & Pizza,29.7617656683504,-95.3621810104161,37,4.5,indian,houston
Shepherd Park Draught House,29.8175785297165,-95.4099878697624,376,4.5,indian,houston
The Rice Box,29.7556801,-95.40862,165,4.0,indian,houston
Ramen Tatsu-Ya,29.7433,-95.39833,862,3.5,indian,houston
Good Dog Houston - Heights,29.78741,-95.38797,625,4.0,indian,houston
Sorrento Ristorante Italiano,29.7444128,-95.3867141,306,4.0,indian,houston
Calle Onze,29.79043,-95.39974,347,4.0,indian,houston
Etoile Cuisine et Bar,29.75697,-95.45693,369,4.5,indian,houston
Ginger & Fork,29.775371,-95.408767,238,4.0,indian,houston
Reggae Hut,29.7264276,-95.3776415,370,4.0,indian,houston
Istanbul Grill,29.71566,-95.41463,515,4.0,indian,houston
El Tiempo Cantina- Richmond,29.7342285,-95.4257327,732,4.0,indian,houston
Asia Market Thai Restaurant,29.80392,-95.368171,243,4.0,indian,houston
Cowboys & Indians Tex-In Kitchen,29.75182,-95.38547,307,4.0,indian,houston
Fadi's Meyerland Mediterranean Grill,29.6894149,-95.4600067,648,4.5,indian,houston
Night Heron,29.7357217,-95.399477,121,4.0,indian,houston
Treebeards,29.7621854179471,-95.3618420932421,196,4.0,indian,houston
Hopdoddy Burger Bar,29.7162949999899,-95.4149717749213,533,4.0,indian,houston
The Pho Spot,29.760415889082,-95.3616855293512,200,4.5,indian,houston
The Capital Grille,29.7392743,-95.4699321,365,4.0,indian,houston
Esther's Cajun Cafe & Soul Food,29.84202,-95.40257,299,4.0,indian,houston
BB's Tex-Orleans,29.78133,-95.38794,769,4.0,indian,houston
Postino Heights,29.78306,-95.3985299,402,4.0,indian,houston
Goode Company Seafood,29.7285128246383,-95.4203385626453,567,4.0,indian,houston
Helen In The Heights,29.791578,-95.388365,195,4.0,indian,houston
Rachels Cafe,29.7597414288733,-95.3599986477912,170,4.5,indian,houston
La Griglia,29.75356,-95.40889,352,4.0,indian,houston
Luigi's Pizzeria,29.735367,-95.374622,1041,4.0,indian,houston
Cafe Brussels,29.77355,-95.3722,272,4.0,indian,houston
Artisans Restaurant,29.7425096583742,-95.3799537073163,405,4.0,indian,houston
Vinoteca Poscol,29.74476,-95.3893499,121,4.0,indian,houston
Cantina Barba,29.79085,-95.37339,129,4.5,indian,houston
Piola,29.74287233551,-95.3798845184326,587,4.0,indian,houston
Mendocino Farms,29.7593,-95.36241,5,4.5,indian,houston
Ray's BBQ Shack,29.7026499,-95.3567173,662,4.5,indian,houston
Ploughman's Deli & Cafe,29.840683,-95.420117,110,5.0,indian,houston
Local Foods,29.7425611,-95.4181027,813,4.5,indian,houston
Rosalie Italian Soul,29.7579561439064,-95.3711798787117,19,4.0,indian,houston
El Tiempo Cantina - Navigation,29.75631,-95.34151,334,4.0,indian,houston
Izakaya WA,29.7524467617111,-95.4097392389107,102,4.5,indian,houston
Standard,29.77073,-95.41488,55,4.0,indian,houston
Sofrito,29.8153470366494,-95.4297368084947,21,5.0,indian,houston
Cajun Town Cafe,29.75796,-95.347447,64,4.5,indian,houston
Oishii,29.7330860390498,-95.4368909182455,1232,4.0,indian,houston
Helen Greek Food and Wine,29.71728,-95.41606,337,4.0,indian,houston
Batanga,29.7623427,-95.3614479,970,3.0,indian,houston
Superica,29.80193,-95.41033,276,4.0,indian,houston
Loch Bar,29.742318,-95.453565,81,4.0,indian,houston
Pappasito's Cantina,29.751495697002,-95.3606378552088,344,3.0,indian,houston
Pluckers Wing Bar,29.7735952,-95.4093677,921,3.5,indian,houston
Caracol,29.7433633233118,-95.4613215925904,1059,4.0,indian,houston
A'Bouzy,29.7426814370813,-95.4153464734554,359,3.5,indian,houston
La Table,29.7473478503039,-95.4616583121282,265,4.0,indian,houston
Emmaline,29.7574085485449,-95.3999614033765,345,3.5,indian,houston
Eloise Nichols Grill & Liquors,29.742388,-95.4505148,324,4.0,indian,houston
Ibiza Food & Wine Bar,29.747401,-95.3768201,461,4.0,indian,houston
MKT BAR,29.7544629017867,-95.3614359686478,576,4.0,indian,houston
Under the Volcano,29.72527,-95.4147,337,4.0,indian,houston
Harold's,29.8026744965396,-95.4033817668648,276,3.5,indian,houston
Diced Poke,29.739003,-95.380113,412,4.5,indian,houston
Mandola's Deli,29.73764,-95.33956,271,4.5,indian,houston
Texadelphia,29.7419099637541,-95.3909698743018,85,4.0,indian,houston
Pasha,29.7148246765137,-95.4138641357422,291,4.0,indian,houston
BB's Tex-Orleans,29.745212,-95.391735,632,3.5,indian,houston
Little Matt's,29.71587,-95.43353,502,4.5,indian,houston
Cooking Girl,29.70636,-95.41496,214,4.0,indian,houston
Siu Lap City,29.74512,-95.37747,97,4.5,indian,houston
Yia Yia Mary's,29.74753,-95.45791,700,3.5,indian,houston
Antica Osteria,29.725282,-95.413276,315,4.0,indian,houston
Handies Douzo,29.781711,-95.39559017,1,5.0,indian,houston
Surya India,29.7685441737493,-95.4102170839906,272,4.0,indian,houston
Blue Nile,29.737581,-95.426543,325,4.0,indian,houston
Beer Market Co - Studemont,29.7671159390386,-95.3917187200568,315,4.0,indian,houston
Doberman's Bar & Grill,29.76731,-95.40966,183,4.5,indian,houston
Maggiano's Little Italy,29.74507,-95.460509,635,3.5,indian,houston
Voodoo Queen Daiquiri Dive,29.747526,-95.337898,180,4.0,indian,houston
Gusto Gourmet,29.7362906,-95.4108062,281,4.5,indian,houston
Bernie's Burger Bus,29.8062298601927,-95.3989635407925,314,4.0,indian,houston
Mint Thai Kitchen,29.76011,-95.39857,143,4.0,indian,houston
Mendocino Farms,29.716224,-95.415251,119,4.0,indian,houston
The Chicken & Rice Guys,29.8117842905828,-95.3997976018524,79,4.0,indian,houston
Govinda's Vegetarian Cuisine,29.8176694576682,-95.423864390213,356,4.5,indian,houston
Shell Shack,29.76853,-95.38337,223,3.0,indian,houston
Café Rabelais,29.7167059779167,-95.4156891256571,320,4.0,indian,houston
Mary'z Mediterranean Cuisine,29.7706311048388,-95.4068061172845,217,3.5,indian,houston
Nara Express,29.747424155181,-95.3706633785736,416,4.0,indian,houston
Damian's Cucina Italiana,29.74437,-95.3797,214,4.0,indian,houston
Red Lion British Pub,29.74565,-95.41098,610,3.5,indian,houston
UB Preserv,29.742502114649,-95.3997889906168,133,4.0,indian,houston
Luna Pizzeria,29.7724879794653,-95.3990623776413,234,4.5,indian,houston
Fadi's Eatery,29.72173,-95.38244,67,4.5,indian,houston
Foundation Room,29.7539291,-95.3640564,71,4.5,indian,houston
China Garden,29.7491456,-95.3632065,222,4.0,indian,houston
Paulie's,29.7428749,-95.4064275,783,4.0,indian,houston
Kubo’s Sushi & Washoku,29.7682,-95.37761,43,4.5,indian,houston
Bloom & Bee,29.75134,-95.45705,194,3.5,indian,houston
Biggio's,29.7540775490537,-95.3578174860361,331,3.0,indian,houston
SeaSide Poke,29.7501531437211,-95.3561897076783,383,4.5,indian,houston
Maison Pucha Bistro,29.78922,-95.3881,226,4.0,indian,houston
Samurai Noodle,29.7764846,-95.4112293,627,4.0,indian,houston
The Burger Joint,29.74533,-95.39118,1014,4.0,indian,houston
KA Sushi,29.803124,-95.4107372,393,4.0,indian,houston
BirdDog Saint,29.75862,-95.36313,50,3.5,indian,houston
District 7 Grill,29.7521019589688,-95.3747399760931,546,4.0,indian,houston
Mastro's Steakhouse,29.751449,-95.456474,357,3.5,indian,houston
Thai Bistro,29.72865,-95.430533,355,4.0,indian,houston
Flip 'n Patties,29.7594315325627,-95.3648082911968,39,4.5,indian,houston
Sapporo Japanese Sushi & Bar,29.7632468924356,-95.3620460044849,62,4.5,indian,houston
Nippon Japanese Restaurant,29.73269,-95.39147,666,4.0,indian,houston
sweetgreen Montrose,29.74343,-95.39514,30,4.5,indian,houston
Bubba's Texas Burger Shack,29.7259695179953,-95.4668481174935,735,4.0,indian,houston
Tourão Brazilian Churrasqueria,29.7332919,-95.3914724,168,4.0,indian,houston
Brookstreet Bar-B-Que,29.7460823059082,-95.3914413452148,352,4.0,indian,houston
Your Pie,29.7522964518359,-95.3684243165043,254,4.5,indian,houston
Krab Kingz Seafood,29.8611744582097,-95.4729844629765,216,3.5,indian,houston
Ouzo Bay,29.742318,-95.453565,97,4.0,indian,houston
Guadalajara Mexican Grille & Bar,29.72957,-95.4236899,373,4.0,indian,houston
Ike's Love & Sandwiches,29.7903824253055,-95.3978858305221,105,4.0,indian,houston
Zydeco Louisiana Diner,29.75109,-95.3673699,210,4.5,indian,houston
Miyako,29.77024,-95.407674,294,4.0,indian,houston
Cane Rosso,29.8025909301009,-95.4104705527425,385,3.5,indian,houston
Cabo Baja Tacos & Burritos,29.77071,-95.4071,301,4.0,indian,houston
Carrabba's - The Original on Kirby,29.7364881579311,-95.4183509045328,452,4.0,indian,houston
Rainbow Lodge,29.8045101165771,-95.4296264648438,483,4.0,indian,houston
Kura Revolving Sushi Bar,29.7396381,-95.3788745,311,4.0,indian,houston
Tacos Tierra Caliente,29.73829,-95.40826,825,4.5,indian,houston
The Empanada Factory,29.728305,-95.437831,109,4.5,indian,houston
Barnabys Cafe,29.75366,-95.387,437,4.0,indian,houston
The Raven Grill,29.72589,-95.40649,346,4.0,indian,houston
Hubcap Grill,29.760158,-95.360458,294,4.0,indian,houston
Wings of Houston,29.7449784,-95.3820337,28,3.5,indian,houston
Mala Sichuan Bistro,29.7442254,-95.3932558,438,4.0,indian,houston
The Union Kitchen,29.7057177104364,-95.4420052760595,536,3.5,indian,houston
Mia Bella Trattoria,29.7323697055943,-95.4381511442779,364,4.5,indian,houston
Pepper Twins,29.731742,-95.417754,210,4.0,indian,houston
Part & Parcel,29.7537066,-95.3731559,36,4.0,indian,houston
Gatlin's BBQ,29.8204165146057,-95.4290675846557,657,3.5,indian,houston
Weights + Measures,29.742636,-95.372765,754,3.5,indian,houston
Federal American Grill,29.7670059204102,-95.409065246582,462,4.0,indian,houston
Jus' Mac Montrose,29.744899,-95.3820099,527,3.5,indian,houston
Last Concert Cafe,29.76834,-95.35315,180,4.0,indian,houston
Mendocino Farms,29.75766417,-95.457146,27,5.0,indian,houston
Guadalajara Del Centro,29.7540366752636,-95.3644546895492,441,3.5,indian,houston
Lankford Grocery,29.75005,-95.38382,688,4.0,indian,houston
Fukuoka Sushi Bar & Grill,29.74512,-95.37747,148,4.5,indian,houston
Capone's Oven & Bar,29.73401,-95.41529,183,4.0,indian,houston
Peru Cafe Express,29.7283750376028,-95.4378222833283,280,4.5,indian,houston
The Blue Fish - Houston,29.7714194956363,-95.4208760152766,784,4.0,indian,houston
Cielito Cafe,29.748475,-95.401941,198,4.5,indian,houston
Eight Row Flint,29.79033,-95.39928,332,3.5,indian,houston
Bellissimo Ristorante,29.804596,-95.381574,218,4.0,indian,houston
B.B. Lemon,29.73357,-95.39089,39,3.5,indian,houston
Platypus Brewing,29.768207,-95.377465,185,4.0,indian,houston
Local Foods,29.783645,-95.398487,177,4.5,indian,houston
Flower Child,29.75697,-95.45693,303,4.5,indian,houston
Spindletop,29.756919,-95.369435,273,3.5,indian,houston
Hugo's,29.74317,-95.39977,1271,4.0,indian,houston
Spanky's,29.6949,-95.2996,260,4.0,indian,houston
The Union Kitchen,29.8186757,-95.4293346,381,4.0,indian,houston
The Boot,29.803425,-95.420311,310,3.5,indian,houston
Petrol Station,29.8213393,-95.4239446,694,4.0,indian,houston
Hopdoddy Burger Bar,29.7435167,-95.4536324,740,3.5,indian,houston
Roostar Vietnamese Grill,29.7313251,-95.4753633,687,4.5,indian,houston
Cavatore Italian Restaurant,29.8052,-95.42883,343,3.5,indian,houston
Pappas Seafood House,29.739089,-95.4102888,202,4.0,indian,houston
HS Green,29.7325599889764,-95.4640570655465,339,4.5,indian,houston
Bovine & Barley,29.76114,-95.36197,250,3.5,indian,houston
Pho Binh,29.781788,-95.390205,392,4.0,indian,houston
Soul Food Vegan,29.73596,-95.36347,201,3.5,indian,houston
Velvet Taco,29.7700614929199,-95.4101257324219,1858,4.0,indian,houston
House of Fries,29.843105,-95.472766,231,4.5,indian,houston
Politan Row - Houston,29.71655,-95.4164,33,3.5,indian,houston
Downtown Aquarium,29.7642702707008,-95.3673791885376,767,3.0,indian,houston
Gyro King,29.698073,-95.387614,704,4.5,indian,houston
The Pastry War,29.7620197966518,-95.3612599099258,317,4.0,indian,houston
BuffBurger,29.738828,-95.399186,229,4.0,indian,houston
RA Sushi,29.7418815,-95.4435881,745,3.5,indian,houston
Pepper Twins,29.7530888020992,-95.40378279984,282,4.0,indian,houston
Harris County General Store Barbecue,29.74703,-95.30759,15,5.0,indian,houston
Barnaby's Cafe,29.721761,-95.382537,586,4.0,indian,houston
Sonoma Wine Bar & Restaurant,29.7344229,-95.4208099,236,4.0,indian,houston
The Union Kitchen,29.770879,-95.422966,232,4.0,indian,houston
Cafe Ginger,29.754342,-95.402018,371,4.0,indian,houston
Gyro Hut,29.69939,-95.3857,223,4.5,indian,houston
House Of Hoopz Crawfish,29.7523023722423,-95.354887470603,43,4.5,indian,houston
Poitín Bar & Kitchen,29.7701177386825,-95.3822795350571,274,3.5,indian,houston
Hungry's,29.71784,-95.41363,717,3.5,indian,houston
Ouisie's Table,29.746008,-95.443169,507,3.5,indian,houston
Watershed,29.6714359176385,-95.4596153178446,68,5.0,indian,houston
Aladdin Mediterranean Grill - Garden Oaks,29.8166847925393,-95.4307027906179,126,4.5,indian,houston
Atlas Diner,29.7619967538176,-95.3621832202955,9,4.5,indian,houston
Osaka Japanese Restaurant,29.74425,-95.38821,588,4.0,indian,houston
Neo Baguette,29.8041031910297,-95.3965086489916,136,4.5,indian,houston
AGU Ramen - Washington,29.778476,-95.429857,298,3.5,indian,houston
Pho Saigon,29.7451191,-95.3774719,929,4.0,indian,houston
bellagreen,29.790639,-95.3879981,406,4.0,indian,houston
III Forks Prime Steakhouse,29.7541953989078,-95.3647297788593,379,3.5,indian,houston
Love Buzz,29.7446872,-95.3864958,159,3.5,indian,houston
Bayou & Bottle,29.75401,-95.36277,40,4.0,indian,houston
Dumpling Haus,29.7411089,-95.4306334,10,4.5,indian,houston
STUFF'd Wings,29.7012771,-95.3650802,44,4.0,indian,houston
Américas,29.7536115992694,-95.4104623190491,507,4.0,indian,houston
Bodegas Taco Shop,29.723803,-95.387708,540,3.5,indian,houston
Churrascos River Oaks,29.742367,-95.409116,310,4.0,indian,houston
Argentina Cafe,29.7351398468018,-95.4661560058594,368,4.0,indian,houston
Le Colonial,29.7420053195376,-95.4533068773155,353,3.5,indian,houston
Slowpokes,29.816942,-95.420669,239,4.5,indian,houston
Café Poêtes,29.75348,-95.37966,265,4.0,indian,houston
Taco Keto,29.73877,-95.33909,114,4.5,indian,houston
El Tiempo Cantina- Washington,29.7709916,-95.4189711,587,4.0,indian,houston
Ninja Ramen,29.7701308711855,-95.4038063259051,455,3.5,indian,houston
The Oyster Bar at Prohibition,29.7603463,-95.3615819,62,4.0,indian,houston
Sozo Sushi Lounge,29.7500602132296,-95.4624052428372,337,4.0,indian,houston
Tony Mandola's,29.75576,-95.3984,328,4.0,indian,houston
Bacco Wine & Spirits,29.7275861,-95.4208844,152,4.5,indian,houston
Bayou City Seafood and Pasta,29.7325683,-95.4575265,448,4.0,indian,houston
Star Pizza,29.73229,-95.41103,770,4.0,indian,houston
Little Pappasito's Cantina,29.7344,-95.4177,528,4.0,indian,houston
Trendy Dumpling,29.7290612,-95.4300246,119,3.5,indian,houston
Coppa Osteria,29.7189381,-95.4149874,467,3.5,indian,houston
Indianola,29.7490110165714,-95.3567924837475,148,4.0,indian,houston
Local Poke,29.7707245653136,-95.4067248478532,177,5.0,indian,houston
Jus' Mac,29.81066,-95.39966,730,3.5,indian,houston
Cleburne Cafeteria,29.72567,-95.43232,400,3.5,indian,houston
The Annie Café & Bar,29.74778,-95.46229,11,4.5,indian,houston
Indika,29.744766,-95.387886,441,3.5,indian,houston
Tarka Indian Kitchen,29.80303,-95.41111,494,4.0,indian,houston
El Meson Restaurant,29.71481,-95.41599,188,3.5,indian,houston
Goode Company Armadillo Palace,29.7272756,-95.4183166,193,3.5,indian,houston
Treebeards,29.75947,-95.36097,31,4.5,indian,houston
The Fish,29.7523809637171,-95.3772068023682,389,4.0,indian,houston
Saigon Smoke,29.802491,-95.3816657,18,5.0,indian,houston
Mina Ristorante,29.7381940494014,-95.4363139242039,19,4.0,indian,houston
Helen T's Soul Food Cafe,29.8303049061824,-95.3191835805774,17,5.0,indian,houston
McCormick & Schmick's Seafood & Steaks,29.754575,-95.4570993,350,3.0,indian,houston
Spaghetti Western Italian Cafe,29.775061,-95.409362,276,4.0,indian,houston
Bistro Menil,29.73824,-95.39844,279,3.5,indian,houston
BB’s Tex-Orleans,29.81689,-95.43032,107,4.0,indian,houston
Roti Modern Mediterranean,29.709644,-95.401239,3,4.5,indian,houston
Phil & Derek's,29.74439,-95.36553,449,3.5,indian,houston
Chapman & Kirby,29.7500898419434,-95.3559485586045,165,3.0,indian,houston
The District,29.75973,-95.362981,194,3.5,indian,houston
Henderson Heights,29.7675296294074,-95.3793103247881,91,4.5,indian,houston
Laurenzo's Restaurant,29.77069,-95.40562,433,3.5,indian,houston
Divino,29.738854,-95.405942,85,4.0,indian,houston
Muiishi Makirritos,29.75017,-95.35589,157,4.5,indian,houston
La Sicilia,29.74425,-95.38821,204,4.5,indian,houston
The Community Bar,29.7462648,-95.3782144,215,4.0,indian,houston
Cuchara,29.748418,-95.385446,699,3.5,indian,houston
Baby Barnaby's,29.7483,-95.38828,1317,4.5,indian,houston
Piada Italian Street Food,29.76099,-95.42052,367,4.0,indian,houston
The Kitchen at The Dunlavy,29.76114,-95.401872,741,4.0,indian,houston
Me'lange,29.75315,-95.38623,74,4.0,indian,houston
Original Pinoy Meals,29.6932126,-95.4150577,5,5.0,indian,houston
Good Dog,29.738886777925,-95.3952345997095,238,4.0,indian,houston
Bungalow Heights,29.80336,-95.41829,121,3.5,indian,houston
Liberty Kitchen & Oysterette,29.7469456093221,-95.4497998117782,701,4.0,indian,houston
The Flat,29.7515201568604,-95.3986434936523,246,4.0,indian,houston
Fajitas A Go Go,29.7237821167041,-95.4189620912075,326,4.0,indian,houston
Qin Dynasty,29.728036,-95.427238,356,4.0,indian,houston
Peru Gourmet,29.663261,-95.464823,105,4.5,indian,houston
Velvet Taco,29.7445648126161,-95.3905151312828,320,4.5,indian,houston
Maine-ly Sandwiches,29.7856017,-95.4649034,709,4.0,indian,houston
Willie G's Seafood,29.7509453,-95.4566004,397,3.5,indian,houston
Gloria's Latin Cuisine,29.7467295,-95.377229,572,3.5,indian,houston
Understory,29.759439100095,-95.364798232913,17,4.0,indian,houston
Tamashi Ramen Sushi,29.829031,-95.4307995,43,4.5,indian,houston
Uptown Sushi,29.7554255603298,-95.456566587558,334,4.0,indian,houston
Bombay Pizza,29.75773,-95.36496,1089,4.0,indian,houston
BB's Tex-Orleans,29.73362,-95.42607,448,3.5,indian,houston
Best Soul Food In Town,29.687916,-95.3539,63,4.0,indian,houston
Kiran's,29.73356,-95.42271,195,4.0,indian,houston
Barbecue Inn,29.82854,-95.40036,278,4.0,indian,houston
Indigo,29.83778,-95.36848,63,4.0,indian,houston
The Halal Guys,29.7097897,-95.4020403,75,4.5,indian,houston
Frank's Pizza,29.761395,-95.362598,764,4.0,indian,houston
The Cheesecake Factory,29.73897,-95.463121,636,3.0,indian,houston
369 Oriental Bistro,29.7445052,-95.3916639,261,4.0,indian,houston
Buca di Beppo Italian Restaurant,29.7268984,-95.428406,482,3.0,indian,houston
Down the Street,29.7791897838263,-95.4260782798443,269,4.0,indian,houston
Cafeza,29.7736,-95.3722,309,4.0,indian,houston
Frenchy's Chicken,29.773698,-95.325981,29,4.5,indian,houston
TASTE SICHUAN BISTRO,29.741696,-95.462977,13,4.5,indian,houston
Goodnight Charlie's,29.7433221628276,-95.4003073275089,70,4.0,indian,houston
Sonoma Wine Bar & Restaurant - Heights,29.7853393554688,-95.3877944946289,203,4.0,indian,houston
Escalante's,29.7412227,-95.4472044,286,3.5,indian,houston
Hugh O'Connors,29.786062,-95.465085,60,4.5,indian,houston
Pappa Geno's,29.80202,-95.43037,566,4.5,indian,houston
Local Foods,29.7609231985565,-95.3619832545519,228,4.5,indian,houston
Fusion Taco Canteen & Cocktails,29.7981309,-95.3823537,175,4.0,indian,houston
Holman Draft Hall,29.7402447,-95.3797844,239,4.0,indian,houston
Fabian's Latin Flavors,29.76203,-95.36068,147,3.5,indian,houston
Frank's Americana Revival,29.74196,-95.43997,208,4.0,indian,houston
Craft F&B,29.752104,-95.457319,52,4.0,indian,houston
Jax Grill,29.7753925323486,-95.4099426269531,215,4.0,indian,houston
Fresco Cafe Italiano,29.7287262957213,-95.4316117488783,176,4.5,indian,houston
Pop's,29.78331,-95.34219,13,4.0,indian,houston
Kau Ba,29.743614,-95.402279086411,113,4.0,indian,houston
La Grange,29.7434907,-95.4011294,350,3.5,indian,houston
Pistolero's,29.742544,-95.39836,433,3.5,indian,houston
La Vibra Tacos,29.779766,-95.3985646,122,4.0,indian,houston
Coral Sword,29.7307648065755,-95.3273910975722,87,4.5,indian,houston
The Signature Kafe,29.7383574396372,-95.3797864168882,11,4.0,indian,houston
Cyclone Anaya's Mexican Kitchen,29.7524247,-95.3772482,634,3.0,indian,houston
Lucio's BYOB,29.758326,-95.385579,215,4.0,indian,houston
Rudyard's,29.749886,-95.396551,244,4.0,indian,houston
Lucky's Lodge,29.75256,-95.35467,16,4.5,indian,houston
La Fondita Michoacan,29.78918,-95.40955,41,4.5,indian,houston
Leeland House,29.74654,-95.35827,290,4.0,indian,houston
La Fendee Mediterranean Grill,29.743457,-95.396209,247,4.0,indian,houston
Twin Peaks,29.73139,-95.41722,356,3.5,indian,houston
Tacos A Go Go,29.7383884,-95.3798736,903,4.0,indian,houston
District 7 Grill,29.7469,-95.3579199,70,4.0,indian,houston
The Cajun Stop,29.74465,-95.35997,522,3.5,indian,houston
Grotto Ristorante,29.740495,-95.456781,315,3.5,indian,houston
Fleming's Prime Steakhouse & Wine Bar,29.738118,-95.416578,329,4.0,indian,houston
Henderson & Kane,29.76597,-95.37954,56,5.0,indian,houston
Morton's The Steakhouse,29.7567493090322,-95.3641144068024,188,3.5,indian,houston
Davis St at Hermann Park,29.7155786002702,-95.3809158306885,142,3.5,indian,houston
Pizzeria Solario,29.7347932634449,-95.4411491633683,296,4.0,indian,houston
Jin Bento,29.757728,-95.364952,30,4.5,indian,houston
Chuy's,29.742689,-95.420446,700,3.5,indian,houston
Cottonwood,29.8182730404055,-95.4100037265833,508,3.5,indian,houston
Tony's,29.73204,-95.436,319,3.5,indian,houston
Kanomwan,29.734432220459,-95.3306884765625,209,3.5,indian,houston
The '401,29.70708,-95.47299,226,4.5,indian,houston
Penjamo El Grande,29.787224,-95.303604,13,5.0,indian,houston
Oh My Gogi!,29.7164422761895,-95.414836290213,527,4.0,indian,houston
Breaking Bao,29.7165161,-95.4163528,30,4.5,indian,houston
Ninfa's Mexican Restaurant,29.668205,-95.2608907,177,4.0,indian,houston
Asahi Sushi,29.68877,-95.4131533,323,4.0,indian,houston
The Oceanaire Seafood Room,29.7402387235901,-95.4638555645943,477,3.5,indian,houston
Katz's Deli & Bar,29.744801,-95.38951,996,3.5,indian,houston
Tex-Chick Puertorrican Restaurant,29.74833,-95.38934,109,4.0,indian,houston
Tea + Victory,29.80427,-95.42676,176,4.5,indian,houston
Le Bistro,29.82358,-95.37856,100,4.0,indian,houston
Dona Maria,29.75787,-95.34309,117,4.5,indian,houston
Restaurante Monte Cristo,29.7512503,-95.3352994,6,4.0,indian,houston
El Tiempo Cantina- Westheimer,29.745045,-95.38576,288,3.5,indian,houston
Crumbville,29.7344,-95.36537,141,5.0,indian,houston
Fainmous BBQ,29.66818,-95.4637,287,4.0,indian,houston
Cactus Cove,29.7888937058758,-95.4367383118961,93,3.5,indian,houston
Pappasito's Cantina,29.6767729,-95.4155768,281,3.5,indian,houston
El Big Bad,29.76127624718,-95.3626658767462,609,3.0,indian,houston
Leaf & Grain,29.75527,-95.36304,90,4.5,indian,houston
Carniceria Aguascalientes,29.70036,-95.27753,107,4.5,indian,houston
Brothers Taco House,29.74513,-95.35682,358,4.0,indian,houston
Hoot's Smokehouse,29.735143213987,-95.2868901193142,29,4.5,indian,houston
Barnaby's Cafe,29.7482437315525,-95.3884293703781,310,4.0,indian,houston
Liberty Taco,29.7325893491507,-95.4560000449419,657,4.5,indian,houston
Irma’s Original,29.76011,-95.35204,388,3.0,indian,houston
Dimassi's Mediterranean Buffet,29.689106703537,-95.4130176562456,264,4.0,indian,houston
McCormick & Schmick's Seafood & Steaks,29.7545947,-95.3651683,319,3.0,indian,houston
Ragin' Cajun Restaurant,29.73283,-95.44908,483,3.5,indian,houston
Midwest Coney Connection,29.7364284,-95.4760301,82,5.0,indian,houston
Pappadeaux Seafood Kitchen,29.676789,-95.41655,326,3.5,indian,houston
Sticky's Chicken,29.77018,-95.38161,75,4.0,indian,houston
Spicy Dog,29.7446994781494,-95.3861083984375,38,4.5,indian,houston
Les Givral's Sandwich & Café,29.745506,-95.3768966,1193,4.0,indian,houston
The Houston Club,29.7588592,-95.3674515,26,4.0,indian,houston
Piatto Ristorante,29.737821,-95.459841,122,4.0,indian,houston
Nino's,29.757238682246,-95.3954217327958,128,4.0,indian,houston
Pappa Geno's,29.744143,-95.3881679,44,4.5,indian,houston
Coterie,29.7629756,-95.3634958,44,4.5,indian,houston
Saltillo Mexican Kitchen,29.70336,-95.47523,115,4.0,indian,houston
King's Court Bar And Kitchen,29.7512819590405,-95.3539982488742,74,3.5,indian,houston
Pokeworks,29.741579,-95.409034,216,4.5,indian,houston
Vibrant,29.74455,-95.40574,205,4.0,indian,houston
Boombox Taco,29.773064,-95.332343,40,4.5,indian,houston
Goode Company Barbeque,29.7270351632195,-95.4184110074096,1116,3.5,indian,houston
Connie's Seafood,29.81088,-95.38235,169,4.0,indian,houston
Pepperoni's - Montrose,29.7453,-95.3916,368,4.0,indian,houston
Flying Fish,29.80246,-95.4125,140,3.5,indian,houston
Candy Shack Daiquiris,29.7702529329864,-95.4130134465169,43,4.0,indian,houston
Poke In The Bowl,29.7097666,-95.4020586,23,4.5,indian,houston
Green Seed Vegan,29.7303089346866,-95.3765309942689,609,4.0,indian,houston
Oh My Gogi  Market Square,29.76226,-95.36176,4,4.0,indian,houston
Foreign Policy,29.7194347381592,-95.4214096069336,125,4.5,indian,houston
Beer Market Co. Midtown,29.7420041907991,-95.379702776636,135,3.5,indian,houston
Plonk! Beer & Wine Bistro,29.8284049,-95.4302624,336,4.0,indian,houston
Poke In The Bowl,29.74425,-95.38821,181,4.5,indian,houston
T & T Seafood,29.8636646,-95.4131367,24,4.5,indian,houston
Pappadeaux Seafood Kitchen,29.734771,-95.416465,428,3.5,indian,houston
Romano's Pizza,29.7544062271704,-95.4004679195084,421,4.0,indian,houston
Nom Mi Street,29.72768,-95.36291,167,4.5,indian,houston
Common Grounds Uncommon Coffee,29.7549054637528,-95.3612308949232,14,5.0,indian,houston
Michiru Sushi,29.729959,-95.436875,308,4.0,indian,houston
Boudreaux's Cajun Kitchen,29.72298,-95.459121,183,3.5,indian,houston
The Phoenix On Westheimer,29.74249,-95.40771,227,3.5,indian,houston
Khyber North Indian Grill,29.734772,-95.41721,312,4.0,indian,houston
Chicago Italian Beef & Pizza,29.802709,-95.382171,343,3.5,indian,houston
Mattie's Catfish Kitchen & More,29.80086,-95.3097499,23,4.0,indian,houston
Pepper Tree,29.7324851,-95.438713,446,4.0,indian,houston
Cedar Creek Bar & Grill,29.80349,-95.41771,696,3.5,indian,houston
Miller's Cafe,29.8218643,-95.4103751,142,4.0,indian,houston
Island Grill,29.7170844423813,-95.4142375909825,87,4.0,indian,houston
Boomtown Coffee Main St. Café & Bar,29.7621907333786,-95.3609955310822,89,4.0,indian,houston
Niko Niko's Greek & American Cafe,29.7630777,-95.3624346,222,4.0,indian,houston
Blue Nile,29.7375819062313,-95.426522682209,79,4.0,indian,houston
Antojitos Salvadorenos,29.73295,-95.32795,18,4.0,indian,houston
Kim Son,29.7452583312988,-95.3596115112305,429,3.0,indian,houston
Sumo Hibachi & Sushi Bar,29.7290369,-95.4301728,30,4.0,indian,houston
The Black Labrador,29.7360206753874,-95.3915599651666,330,3.0,indian,houston
Inferno Pizza,29.74549,-95.45432,110,4.5,indian,houston
Sunshine's Health Food Store And Vegetarian Deli,29.69974,-95.38054,411,4.5,indian,houston
Green Vegetarian Cuisine,29.7068261375452,-95.4765787190491,477,4.0,indian,houston
J & J Lounge,29.7819691,-95.3363037,19,4.0,indian,houston
Sleepy's Po-Boys,29.679671,-95.42486,337,4.0,indian,houston
100% Taquito,29.7291112,-95.429681,478,4.0,indian,houston
Doshi House,29.7326252,-95.3662922,363,4.5,indian,houston
Burganic Hub,29.73733533,-95.4763745,92,4.5,indian,houston
Moku Bar,29.7603502514673,-95.3615838417335,129,4.5,indian,houston
Perry’s Steakhouse & Grille - River Oaks,29.75278,-95.40821,69,4.0,indian,houston
El Taconazo,29.79624,-95.36723,189,4.5,indian,houston
P.F. Chang's,29.7421239645077,-95.4475289583206,311,3.0,indian,houston
Pat Greer's Kitchen,29.755708,-95.387011,99,4.5,indian,houston
Cherry Block,29.761515,-95.362266,25,4.0,indian,houston
High Dive,29.754551,-95.3582,8,4.0,indian,houston
Shan Hu Chinese Restaurant,29.67197,-95.28223,132,4.0,indian,houston
Oddball Eats,29.7586595383299,-95.3639031509986,53,4.5,indian,houston
Eugene’s Gulf Coast Cuisine,29.74807,-95.40767,343,3.5,indian,houston
The Pearl Restaurant and Bar,29.76005,-95.36025,38,4.0,indian,houston
Sambuca,29.760608,-95.362771,468,3.0,indian,houston
Al Quick Stop,29.750144,-95.396713,245,4.5,indian,houston
Tropicales,29.72583,-95.41034,137,4.0,indian,houston
Bubble Egg Garden Oaks,29.81675,-95.42858,20,4.5,indian,houston
bellagreen,29.738244,-95.415371,237,4.0,indian,houston
Chutney Bowl,29.752332,-95.37698,5,5.0,indian,houston
District 7 Pizzeria,29.746999,-95.358019,115,4.0,indian,houston
The Purple Flour,29.82168,-95.42229,24,5.0,indian,houston
Shake Shack,29.74496,-95.39209,140,3.5,indian,houston
Verandah,29.735542,-95.418806,49,3.5,indian,houston
Southside Flying Pizza,29.7579529422108,-95.3473058715463,10,4.5,indian,houston
Marchese's Take-Home Kitchen,29.8409739831322,-95.4192708805203,25,5.0,indian,houston
Local Pho,29.770309,-95.381399,187,4.0,indian,houston
Mannie's Seafood,29.669367,-95.263426,124,4.0,indian,houston
Teotihuacan Mexican Cafe,29.79901,-95.38211,586,4.0,indian,houston
Hopdoddy Burger Bar,29.803699,-95.4051727,145,3.5,indian,houston
Wokker,29.76367,-95.36078,43,4.0,indian,houston
Brooklyn Meatball,29.757522,-95.365165,153,4.5,indian,houston
Pink's Pizza,29.722725,-95.337282,147,3.5,indian,houston
Tamales Don Pepe,29.67714,-95.43921,139,4.5,indian,houston
The Backyard At Richmond,29.7340960257,-95.4057595409,1,5.0,indian,houston
#1 Chicken Rice & Seafood,29.72796,-95.37673,149,4.0,indian,houston
Pi Pizza,29.7733824717744,-95.3979023918509,373,4.0,indian,houston
Safina,29.7082022615957,-95.4041817784309,22,3.5,indian,houston
Vieng Thai,29.8027407,-95.4710047,455,3.5,indian,houston
Barnaby's Cafe,29.7633117622313,-95.3622356746475,130,4.0,indian,houston
Lupe Tortilla,29.7319201223644,-95.4167838585085,487,3.5,indian,houston
M&M Hamburger,29.738089,-95.305659,45,4.5,indian,houston
MAX's Wine Dive,29.7708299,-95.4090042,1083,3.5,indian,houston
Pokeworks,29.7746128237454,-95.3981831523353,285,4.5,indian,houston
Taqueria Los Mexicanos,29.7412,-95.32155,17,5.0,indian,houston
Alexander The Great,29.7351103163519,-95.4657626152039,212,3.5,indian,houston
Houston's Famous Deli,29.6851238,-95.399255,149,4.5,indian,houston
Captain Crawfish,29.78934,-95.46751,69,4.0,indian,houston
Joe's Cafe,29.8221054077148,-95.3415222167969,11,4.5,indian,houston
Shake Shack,29.7156618,-95.4182541,253,3.5,indian,houston
Guadalajara's Deli,29.8158638905162,-95.3614846989512,3,4.5,indian,houston
Oliva Wood Fired Pizza,29.724704,-95.447462,12,5.0,indian,houston
Blood Bros. BBQ,29.705155,-95.475517,164,4.5,indian,houston
Dish Society - Finn Hall,29.75887,-95.36381,47,4.0,indian,houston
Sable Gate Winery,29.74584,-95.37545,94,4.0,indian,houston
Wing Quarter,29.702627,-95.3564683,113,3.5,indian,houston
Shake Shack,29.7396529991527,-95.4628195613623,410,3.5,indian,houston
Mama's Seafood,29.8592376,-95.3362618,29,4.5,indian,houston
El Rey Taqueria,29.7703123482813,-95.409279879135,611,4.0,indian,houston
Auntie Chang's Dumpling House,29.741505,-95.4106051,361,3.5,indian,houston
That Funnel Cake Place,29.7259263,-95.3779855,9,4.0,indian,houston
Arabella Mediterranean Cuisine,29.7577299875209,-95.3649598360062,44,4.0,indian,houston
Porch Swing Pub,29.7700586415939,-95.3976507981124,196,3.5,indian,houston
MOD Pizza,29.7748165130615,-95.3828125,142,4.0,indian,houston
The Empanada Company,29.8152729773746,-95.4460131931082,85,4.5,indian,houston
Cafe#13,29.74512,-95.37747,33,4.5,indian,houston
Star Pizza,29.7700571,-95.3961846,439,3.5,indian,houston
Seco's Latin Cuisine,29.722505569458,-95.4181594848633,162,4.0,indian,houston
Champ Burger,29.7496832,-95.3404681,198,4.5,indian,houston
Dot Coffee Shop,29.701056,-95.2951,479,4.0,indian,houston
Thai Cottage Greenway,29.732169,-95.44107,330,3.5,indian,houston
Coreanos,29.7497264,-95.3772903,387,4.0,indian,houston
Sonora Tacos & Hotdogs,29.7340223592819,-95.4057270660996,33,4.5,indian,houston
Pokeworks,29.690896,-95.415987,23,4.5,indian,houston
Agora,29.74298,-95.40257,1116,4.0,indian,houston
Vincent's Restaurant,29.7572382989492,-95.395042765765,174,3.5,indian,houston
La Colombe d'Or Hotel,29.74162,-95.39172,39,4.0,indian,houston
Los Tios - San Felipe,29.74921,-95.46599,45,4.0,indian,houston
Baoz Dumpling,29.7559184,-95.3640146,87,4.0,indian,houston
The Barking Pig,29.806879,-95.429473,233,3.5,indian,houston
Lupe Tortilla,29.77462,-95.40987,303,3.5,indian,houston
Tapester's Grill,29.6896,-95.45222,330,4.0,indian,houston
Strato 550,29.7546050769049,-95.3698692843318,7,4.0,indian,houston
Pizaro's Pizza Napoletana,29.7535202961773,-95.391941841606,321,4.0,indian,houston
Down House,29.80216,-95.3995,1084,3.5,indian,houston
Torchy's Tacos,29.7439741087109,-95.4106315819274,1352,4.0,indian,houston
Yoshi,29.7060849661737,-95.4421059514623,59,4.0,indian,houston
Jollibee,29.693498,-95.414648,505,3.5,indian,houston
Electric FeelGood,29.749235,-95.378434,92,2.0,indian,houston
Lucky's Pub,29.75247,-95.35426,246,3.5,indian,houston
The Waffle Bus,29.80249,-95.41039,373,4.0,indian,houston
Awesome Bites Co,29.770166,-95.381656,35,5.0,indian,houston
Lyons Cocina de Chinos,29.77639,-95.29861,11,4.5,indian,houston
Navy Seafood,29.734037399292,-95.3649826049805,14,4.5,indian,houston
Bisou,29.741911,-95.453213,259,3.0,indian,houston
Nundini Chef's Table,29.78044,-95.40868,274,3.5,indian,houston
Mango Tree Thai Bistro,29.7580285779106,-95.3651696945122,261,3.5,indian,houston
Chicken Kitchen,29.7175449,-95.4174146,140,4.0,indian,houston
Retrospect Coffee Bar,29.7359088,-95.3752621,213,4.5,indian,houston
Alfred's Burger House,29.73457,-95.32989,83,4.0,indian,houston
Costa Brava Bistro,29.705102,-95.468217,175,4.5,indian,houston
Khun Kay Thai Cafe,29.7556184,-95.3919551,448,3.5,indian,houston
Barnaby's Cafe,29.750452,-95.410401,675,4.0,indian,houston
Kim Tai Restaurant,29.74481,-95.37352,197,4.0,indian,houston
Soma Sushi,29.7707939147949,-95.410026550293,643,3.5,indian,houston
Corelli's Italian Cafe,29.7380757,-95.4752726,118,4.0,indian,houston
True Dog Houston,29.7055619,-95.4470077,10,4.0,indian,houston
Fajita Pete's - Bellaire,29.706874,-95.4408008,167,4.0,indian,houston
Los Meros Tacos  Y Su Trompo Tribalero,29.92515,-95.49706,54,4.5,indian,houston
5411 Empanadas,29.7592707401387,-95.3662825000605,86,4.5,indian,houston
Melange Creperie,29.783904,-95.398147,425,4.0,indian,houston
Green Fork & Straw,29.74197,-95.41101,28,5.0,indian,houston
Walker Street Kitchen,29.7542260565125,-95.3576432125897,68,3.5,indian,houston
Third Coast,29.709431,-95.397966,57,4.0,indian,houston
Java Lava Brew,29.7274883509414,-95.3855465153081,200,4.5,indian,houston
We Olive & Wine Bar,29.80319,-95.40097,38,4.5,indian,houston
J & J Fish Market,29.67993,-95.4392699,108,4.0,indian,houston
Saltgrass Steak House,29.7520006,-95.3576434,10,3.0,indian,houston
Boheme,29.747997,-95.386062,921,3.5,indian,houston
Doozo Dumplings & Noodles,29.7550821443562,-95.3625297546387,178,3.5,indian,houston
Brasserie 19,29.7531949,-95.40723,573,3.5,indian,houston
Pappas Shrimp Shack,29.70287,-95.29703,4,4.5,indian,houston
Escalante's Fine Tex-Mex & Tequila,29.6887331780424,-95.4600315886078,214,3.5,indian,houston
Big City Wings,29.785494,-95.4637432690388,161,3.0,indian,houston
Polanquito,29.76628,-95.40922,123,4.5,indian,houston
Cyclone Anaya's Mexican Kitchen,29.7188917,-95.4149864,212,3.5,indian,houston
Armandos,29.7424191949249,-95.419751389412,149,3.5,indian,houston
51fifteen Cuisine and Cocktails,29.7396291893183,-95.4655621379593,321,3.5,indian,houston
Common Bond Cafe & Bakery,29.7071605,-95.4122665,92,4.0,indian,houston
Pub Fiction,29.7488288879395,-95.376106262207,119,3.0,indian,houston
The Original Ninfa's Uptown Houston,29.7493275,-95.4622631,98,3.0,indian,houston
Heights Asian Cafe,29.80626,-95.3995599,474,4.0,indian,houston
Best Street Tacos,29.75308,-95.37717,4,4.5,indian,houston
Isles Eatery & Rhum Bar,29.74914,-95.3643,52,3.5,indian,houston
The Burger Palace,29.7373403318794,-95.468168980426,465,3.5,indian,houston
Tout Suite,29.7586713680944,-95.3505267137113,1426,3.5,indian,houston
Seafood Kitchen,29.741707,-95.304206,7,5.0,indian,houston
Ekko's Greek American Deli,29.7319700519874,-95.4678809811299,204,4.0,indian,houston
Benihana,29.75612,-95.36964,346,2.5,indian,houston
She Trappin',29.72275,-95.37847,1,5.0,indian,houston
Adair Kitchen,29.748991,-95.466573,832,4.0,indian,houston
Lucky Strike,29.753736,-95.364351,267,3.0,indian,houston
Cadillac Bar,29.776495,-95.409039,334,3.5,indian,houston
"Snooze, an A.M. Eatery",29.7419347444059,-95.4619659195996,166,4.0,indian,houston
Thai Spice,29.8027051,-95.4052847,213,3.5,indian,houston
Two Brothers Smokin Oak Kitchen,29.67293,-95.4445,23,5.0,indian,houston
Flamingo Chill,29.8584463,-95.3841135521496,62,4.0,indian,houston
Teotihuacan Mexican Cafe,29.8026448,-95.360804,111,4.0,indian,houston
Empire Cafe,29.742905,-95.403542,1515,4.0,indian,houston
Smoke N Honey House,29.798697,-95.2727780118585,58,2.0,indian,houston
Ruth's Chris Steak House,29.7385746983004,-95.471458286047,290,3.5,indian,houston
Pondicheri,29.741538,-95.419487,1060,3.5,indian,houston
Thai Pepper,29.7382850646973,-95.41015625,190,3.5,indian,houston
Diana American Grill,29.7621240826933,-95.3697948530316,34,3.0,indian,houston
Taqueria Abasolo,29.77786,-95.35739,29,4.0,indian,houston
Little Napoli Italian Cuisine,29.7627097,-95.3673287,317,2.5,indian,houston
Nickel Sandwich Grill,29.77669,-95.3148,58,4.0,indian,houston
Simply Pho,29.7438866872047,-95.3777434239426,505,3.5,indian,houston
Azuma Sushi & Robata Bar,29.760401,-95.36288,260,3.5,indian,houston
Thien An Sandwiches,29.7436923980713,-95.3724594116211,319,4.0,indian,houston
Treebeards,29.75527,-95.36304,34,4.0,indian,houston
Viet's Express,29.69174,-95.41226,73,4.0,indian,houston
Saint Dane's Bar & Grille,29.74386,-95.38126,390,3.5,indian,houston
Hubcap Grill,29.80303,-95.41939,498,3.5,indian,houston
Roma's Pizza,29.7622972702036,-95.3604543885001,107,4.0,indian,houston
Kim Chau Restaurant,29.80337,-95.47002,197,4.0,indian,houston
Farmer's Fresh Meat,29.667317,-95.355837,87,4.5,indian,houston
Cafe El Caracol,29.77274,-95.33152,2,5.0,indian,houston
Alicia’s Tamale Kitchen,29.81584,-95.3614684,2,5.0,indian,houston
Baggy's Grill,29.73911,-95.44215,24,5.0,indian,houston
Treebeards - The Tunnel,29.7576484680176,-95.3688583374023,80,4.0,indian,houston
Cyclone Anaya's Mexican Kitchen,29.775767,-95.410429,403,3.5,indian,houston
LaMacro,29.79955,-95.37247,33,4.0,indian,houston
Doggie Style Hot Dogs,29.75599,-95.36825,18,4.5,indian,houston
Dinner Bell,29.7254123687744,-95.3119049072266,36,4.0,indian,houston
La Casita Mexican Products,29.738445,-95.297462,15,5.0,indian,houston
The Original Timmy Chan,29.6842,-95.34067,28,4.0,indian,houston
The Tuck Room,29.7434071269146,-95.4530692245369,142,3.5,indian,houston
Sam's Fried Chicken & Donuts,29.78171,-95.3979,87,3.5,indian,houston
Birraporetti's,29.76224,-95.36491,384,3.0,indian,houston
Pappas Bar-B-Q,29.74853,-95.36857,240,3.0,indian,houston
Hungry Farmer Barbeque,29.82807,-95.37868,104,3.5,indian,houston
Real Deal Fast Foods,29.82213,-95.31818,5,4.5,indian,houston
Torchy's Tacos,29.7168832286535,-95.4151740753937,921,4.0,indian,houston
Home Plate Bar & Grill,29.75552,-95.3555499,143,1.5,indian,houston
Cultivated F+B,29.7614892981795,-95.3647442534566,11,4.0,indian,houston
Mucho Mexico Restaurante,29.7731308739162,-95.2910272527786,53,3.5,indian,houston
Southern Slider Company of Texas,29.78093,-95.35919,8,4.5,indian,houston
Thai Spice,29.7196974,-95.4165551,211,3.5,indian,houston
B&T Cafe,29.73829,-95.40848,205,4.5,indian,houston
Tayeb Mandi and Mediterranean Grill,29.6841,-95.39154,54,4.0,indian,houston
Le Creole La Vie,29.8050594329834,-95.4225769042969,4,5.0,indian,houston
Quattro Restaurant,29.75401,-95.36277,196,4.0,indian,houston
Hobbit Cafe,29.7340113,-95.4140505,915,3.5,indian,houston
Gotham Pizza,29.74949,-95.37508,232,3.5,indian,houston
House of Blues Restaurant & Bar,29.7538392,-95.3637491,82,3.5,indian,houston
Skeeter's Mesquite Grill,29.7228001,-95.4411151,85,3.5,indian,houston
Chicken Plus,29.81867,-95.28418,47,4.0,indian,houston
M3 Pizza,29.705232,-95.441753,65,4.5,indian,houston
Toulouse Café and Bar,29.7429754553105,-95.4536611586809,272,3.0,indian,houston
Sinfull Bakery,29.74382,-95.36563,63,4.5,indian,houston
La Tapatia,29.733987762565,-95.4041789475105,358,3.5,indian,houston
Suko's Burger House,29.7476,-95.32646,26,4.0,indian,houston
Sage 400,29.7375,-95.46763,282,3.5,indian,houston
Pho Le,29.83878,-95.47359,112,4.5,indian,houston
Cafe Layal Midtown,29.75299,-95.37782,353,3.5,indian,houston
Shake Shack,29.757726,-95.354546,34,3.5,indian,houston
Mcgonigel's Mucky Duck,29.7326589,-95.4170689,171,4.0,indian,houston
Just Falafel,29.7579460661911,-95.3710331123032,49,4.0,indian,houston
Houston's This Is It Soul Food,29.723039,-95.3696922,287,3.5,indian,houston
Honey Art Cafe,29.7348654,-95.4108216,248,3.5,indian,houston
Heavenly Choices,29.79988,-95.33299,8,4.0,indian,houston
Poppa Burger,29.77409,-95.36035,50,3.5,indian,houston
Tacos Aracely's,29.8374,-95.36187,35,4.5,indian,houston
Bare Bakery,29.73604,-95.4319,15,5.0,indian,houston
sweetgreen,29.7156496,-95.4175305,62,3.5,indian,houston
Pollo Bravo,29.761028921268,-95.4204111108765,49,4.0,indian,houston
One Fifth Gulf Coast,29.7430325122135,-95.4016041755676,31,4.0,indian,houston
Akashi Asian Sushi Cuisine & Wine Bar,29.6914752582579,-95.4131117723453,197,4.0,indian,houston
Alamo Tamale & Taco,29.83797,-95.3648599,128,4.0,indian,houston
Puebla's Mexican Kitchen,29.808234,-95.389334,179,4.5,indian,houston
Tako Poké,29.7312966701704,-95.475278,124,4.5,indian,houston
Fiesta En Guadalajara,29.7930030822754,-95.3605804443359,84,3.0,indian,houston
Banh Milicious,29.67302,-95.28098,11,4.5,indian,houston
Red Robin Gourmet Burgers and Brews,29.7853092015248,-95.4636254798127,199,3.0,indian,houston
Red Hot Noodle,29.7980299704962,-95.368289457025,20,3.0,indian,houston
Calcio Cafe,29.7734636,-95.3805508,20,4.5,indian,houston
Cali Sandwich & Pho,29.743672275081,-95.3772476952765,455,4.0,indian,houston
Cafe Ginger Uptown,29.7433045,-95.4621364,120,4.0,indian,houston
Soul Kitchen Delivers,29.7661399841309,-95.3648834228516,1,5.0,indian,houston
Salsas Mexican Grill,29.8040734,-95.4124178,74,4.0,indian,houston
Little Bitty Burger Barn,29.840745,-95.470046,264,3.5,indian,houston
JodyCakes,29.78093,-95.35919,31,4.5,indian,houston
Treebeards,29.76012,-95.3656,39,4.0,indian,houston
Mellow Mushroom,29.8034992218018,-95.4105834960938,352,3.5,indian,houston
Yong,29.75887,-95.36381,48,3.5,indian,houston
Spaghetti Western,29.802631210278,-95.4327419183379,92,3.5,indian,houston
Prima Pasta,29.7054576873779,-95.4179534912109,194,3.5,indian,houston
Chapultepec Lupita,29.73436,-95.38932,282,3.5,indian,houston
Laredo Taqueria,29.77011,-95.4051,516,4.0,indian,houston
Field of Greens,29.73876,-95.4157199,284,4.0,indian,houston
Boil House,29.790512,-95.391643,332,4.5,indian,houston
Pondi,29.7263,-95.38462,7,4.0,indian,houston
The Hot Bagel Shop,29.747719835001,-95.4103392342872,568,4.5,indian,houston
Sweet Paris Crêperie & Café,29.7416028,-95.4453124,72,4.5,indian,houston
Harrisburg Country Club,29.7468357086182,-95.3393936157227,10,4.5,indian,houston
Saltgrass Steak House,29.7765833,-95.4098238546158,140,3.0,indian,houston
"CoCo Crepes, Waffles & Coffee - Rice Village",29.71481,-95.41435,304,4.5,indian,houston
Cream Burger,29.7282764,-95.3506671,75,3.5,indian,houston
Live Oak Grill,29.8057,-95.4649699,135,3.5,indian,houston
Boudreaux's Cajun Kitchen,29.700349,-95.296031,76,3.0,indian,houston
Poke Inn,29.68953,-95.46228,89,4.0,indian,houston
San Vuon Cafe,29.6821819482598,-95.2733026269771,10,4.5,indian,houston
Monarch,29.7242284677231,-95.3902316093445,220,3.5,indian,houston
Tacos Tec Lo Mejor De Monterrey,29.6727,-95.26375,77,4.0,indian,houston
Fia’s Pizzeria,29.723953,-95.387837,6,4.0,indian,houston
Golden Seafood House,29.80863,-95.38248,147,3.5,indian,houston
Olive Garden Italian Restaurant,29.729419,-95.425071,163,3.0,indian,houston
Two Guys Pizzeria,29.7065174112828,-95.4116013935114,212,3.5,indian,houston
The Manor House,29.769047,-95.459961,8,4.0,indian,houston
Black Market Burritos,29.73492,-95.37477,15,4.5,indian,houston
E-Tao,29.73743,-95.46344,331,3.5,indian,houston
Vietopia,29.7268397660947,-95.4292001041612,288,3.5,indian,houston
Padthai Restaurant,29.76253,-95.36397,77,3.5,indian,houston
Mama's Oven,29.6840393543243,-95.4223664849997,203,3.5,indian,houston
Chef On The Run Halal,29.6933756544385,-95.4156259580266,118,4.5,indian,houston
Pier 16 Crawfish & Wings,29.8317,-95.38054,8,4.5,indian,houston
Mona Fresh Italian Food -Downtown,29.7594315,-95.3648084,10,3.5,indian,houston
Campesino Coffee House,29.7459888458252,-95.3941802978516,374,4.5,indian,houston
Fajita Pete's - Garden Oaks,29.82921,-95.430808,13,4.0,indian,houston
Taconmadre,29.77828,-95.2934,53,4.0,indian,houston
Dimassi's Mediterranean Buffet,29.732611265307,-95.4659654641462,114,4.0,indian,houston
Zutro Restaurant & Bar,29.75698,-95.36271,23,4.0,indian,houston
1600 Bar + Grille,29.7521537722332,-95.3608405111303,31,3.0,indian,houston
Luchi & Joey's,29.75773,-95.36496,16,4.0,indian,houston
Morningside Thai,29.69593083,-95.41619633,213,3.5,indian,houston
burger-chan,29.7307402490013,-95.4318419,123,4.5,indian,houston
Prego,29.7160143601348,-95.4175163136998,267,3.5,indian,houston
Common Bond Cafe & Bakery,29.7428969,-95.4023708,1966,4.0,indian,houston
El Taco Man,29.8048036558132,-95.3785737690445,13,5.0,indian,houston
Tacos A Go Go,29.781857507123,-95.3900327670036,435,4.0,indian,houston
Brasil,29.74255,-95.40225,1151,3.0,indian,houston
Alamo Tamale & Taco,29.7586078643799,-95.3467636108398,96,4.0,indian,houston
Juicy Crawfish,29.6686454906692,-95.461543578268,100,3.5,indian,houston
Capt Benny's,29.690912,-95.417684,282,3.5,indian,houston
Cafe TH,29.7458283,-95.3595304,283,4.0,indian,houston
Smashburger,29.694601,-95.413506,318,3.5,indian,houston
Enoteca Rossa,29.7144304,-95.4548667,178,4.0,indian,houston
Poke Fresh,29.758113,-95.369927,17,4.0,indian,houston
Taqueria El Rojo Loco,29.7941195,-95.3410278,16,4.0,indian,houston
Low Tide,29.7587652964214,-95.3638249263167,32,3.5,indian,houston
Star Chef Dumpling House,29.75744,-95.36518,49,4.0,indian,houston
Shake shack,29.7590177963367,-95.3635747323803,17,3.5,indian,houston
Raising Cane's Chicken Fingers,29.7428036551851,-95.4073392037664,103,3.5,indian,houston
FM Kitchen and Bar,29.7714,-95.40916,277,3.5,indian,houston
Little Jimmy's Deli,29.7322350492429,-95.439678567862,220,4.5,indian,houston
Brooklyn Meatball,29.7549739,-95.3626406,32,4.5,indian,houston
Taqueria La Creacion,29.7332735659396,-95.3757746193653,12,5.0,indian,houston
Bernie's Burger Bus,29.70486,-95.47528,1076,4.0,indian,houston
Candelari's Pizzeria,29.705848,-95.419186,222,3.5,indian,houston
Muscle Maker Grill - Houston,29.80814,-95.40989,12,4.0,indian,houston
Shula's Steak House,29.7564948519777,-95.3693863037845,136,3.0,indian,houston
BurgerIM,29.73437,-95.41097,58,4.0,indian,houston
Maggie May's Coffee,29.8023898948468,-95.4110998660326,40,4.5,indian,houston
Tampico Seafood,29.80664,-95.38221,108,3.5,indian,houston
Tia Maria's,29.8069049,-95.4575466,259,3.5,indian,houston
Arnaldo Richard's Picos,29.7337646484375,-95.4180526733398,661,3.5,indian,houston
Son Nam Restaurant,29.700257135863,-95.2956576767212,120,3.5,indian,houston
Morton's The Steakhouse,29.7417957546011,-95.4617908225555,204,3.5,indian,houston
The Tasting Room,29.7570501352962,-95.4574146438187,342,3.5,indian,houston
EggHaus Gourmet,29.80414,-95.42722,357,4.0,indian,houston
Onion Creek Cafe,29.7818298339844,-95.3910217285156,792,3.5,indian,houston
Cousins Maine Lobster - Houston,29.54007,-95.12455,264,3.5,indian,houston
The Halal Guys,29.732289,-95.4121366,1050,4.0,indian,houston
Frozen Paradise,29.7215983746891,-95.3674137219787,5,5.0,indian,houston
The Backyard Grill,29.9094292,-95.584844,254,3.5,indian,houston
Southwell's Hamburger Grill,29.7745944,-95.3816432,111,3.5,indian,houston
Jake's Sports Bar,29.7347417,-95.4770214,176,3.5,indian,houston
Zero's Sandwich Shop,29.7578834660823,-95.3699240156676,68,4.5,indian,houston
Victorian's Barbecue,29.7604267,-95.3698028,7,4.5,indian,houston
La Fresca Pizza,29.7076867,-95.4180686,153,4.0,indian,houston
Merida Restaurant,29.7583485,-95.3439636,101,3.5,indian,houston
Saltgrass Steak House,29.686183,-95.459863,254,3.5,indian,houston
Brother's Pizzeria,29.821434,-95.409732,146,4.0,indian,houston
Angela's Oven,29.80957,-95.39725,176,4.5,indian,houston
Tony's Mexican Restaurant,29.8064484785172,-95.4288773423769,286,3.5,indian,houston
The Lexington Grille,29.73144,-95.40985,79,4.0,indian,houston
Sweet Paris Crêperie & Café,29.717649,-95.4158516,957,4.0,indian,houston
Seaside Lounge,29.758052,-95.375538,42,2.0,indian,houston
Alma Latina,29.8061065673828,-95.4104537963867,219,3.5,indian,houston
The West End,29.739853,-95.47045,436,3.0,indian,houston
The Flying Dumpling,29.7191751782205,-95.3376577815767,4,4.5,indian,houston
Doneraki Restaurants,29.6996551203043,-95.2941609086306,163,2.5,indian,houston
George's Pizza & Italian Cuisine,29.684696826131,-95.2940165599106,39,4.0,indian,houston
Lindiana's Southern Vegan Kitchen,29.72582,-95.364,49,3.5,indian,houston
Pho Noodle Express,29.7550296098345,-95.3626717121948,40,4.0,indian,houston
Local Poke - W 34th St,29.81689,-95.43032,23,4.5,indian,houston
CRÚ Food & Wine Bar - West Ave,29.7410533388305,-95.4195337513442,140,3.5,indian,houston
Christian's Tailgate Bar and Grill,29.752572734781,-95.376317416484,361,3.0,indian,houston
Pyburn's Farm Fresh Foods,29.686554,-95.363161,20,4.0,indian,houston
Eric's Restaurant,29.7191743208999,-95.3410169961714,54,3.5,indian,houston
Wild Kitchen,29.686661,-95.440532,95,4.0,indian,houston
Soul Taco,29.8106235725603,-95.4116054624319,29,4.5,indian,houston
Napoli Wine Cafe,29.770219,-95.407797,9,3.5,indian,houston
The Library Coffee and Wine House,29.73221,-95.34897,41,4.0,indian,houston
Nam Eatery,29.8038379159858,-95.3930600768915,189,4.0,indian,houston
Ate Kitchen,29.73497,-95.40577,1,5.0,indian,houston
Garden Kitchen,29.67173,-95.43303,51,4.0,indian,houston
Taqueria Chabelita,29.75016,-95.32171,10,4.5,indian,houston
Belle Station,29.75294,-95.37782,215,3.0,indian,houston
Sushi King,29.7351445677162,-95.4183805481323,358,3.5,indian,houston
Happy Endings,29.7141024424722,-95.4285985944077,72,4.0,indian,houston
Barnaby's Cafe,29.78185,-95.38907,258,4.0,indian,houston
Grinder’s Coffee Bar,29.7233805833223,-95.4188339027387,23,5.0,indian,houston
Bohemeo's,29.7349007,-95.3311879,179,4.0,indian,houston
Acadian Bakery,29.7389949,-95.386745,103,4.0,indian,houston
Craft Burger,29.7589689384056,-95.3637235553302,17,3.5,indian,houston
La Guadalupana Bakery & Café,29.74687,-95.40188,545,4.0,indian,houston
Best Made Hamburgers,29.84035,-95.33681,9,4.5,indian,houston
EaDeaux's,29.74245,-95.35135,7,4.0,indian,houston
Satellite of Pizza,29.7605800628662,-95.3696823120117,15,5.0,indian,houston
Pho Now,29.84519,-95.39113,29,4.5,indian,houston
Flip 'n Patties Food Truck,29.748882,-95.6244796,210,4.5,indian,houston
La Fresca Pizza,29.8037365,-95.4010317,75,4.0,indian,houston
Mytiburger,29.8324947,-95.4510516,168,4.0,indian,houston
Samburger Grill & Daiquiris to Go,29.77672,-95.30805,26,4.0,indian,houston
Azuma Sushi & Robata Grill,29.7215357026307,-95.4188752231679,251,3.5,indian,houston
Laredo Taqueria,29.82236,-95.36095,16,4.5,indian,houston
Pizza Birra Vino,29.759902,-95.39856,11,4.0,indian,houston
Blanca's Cafe,29.75259,-95.33393,8,4.5,indian,houston
Por Mis Cazuelas,29.73409,-95.3292,9,4.5,indian,houston
La Reynera Bakery,29.74199,-95.33704,41,4.5,indian,houston
Jenni's Noodle House,29.80377,-95.39206,259,3.5,indian,houston
Chinese Seafood Plus,29.707344,-95.4759295,81,4.0,indian,houston
Buffalo Wild Wings,29.76961,-95.400344,186,3.0,indian,houston
Arte Pizzeria,29.7603952240977,-95.3617066517472,32,4.0,indian,houston
Bombshells,29.7705650003273,-95.3333450003682,20,2.5,indian,houston
East Hampton Sandwich,29.743455,-95.453462,133,3.5,indian,houston
Tasty Arepa,29.770967,-95.412025,53,4.0,indian,houston
Mucho Mexico Cafe And Bakery,29.8030223846436,-95.2658081054688,11,4.0,indian,houston
Vinny's,29.749282084291,-95.3567609935999,76,3.5,indian,houston
Becks Prime,29.73985,-95.41906,181,3.5,indian,houston
Mi Charro,29.7273576041,-95.3208996748,3,4.0,indian,houston
LA Crawfish,29.732211,-95.440918,415,3.0,indian,houston
Live Oak Lounge & Grill,29.72028,-95.37326,53,3.0,indian,houston
Edgar's Hermano,29.7537,-95.37322,45,3.5,indian,houston
Super La Mexicana,29.67308,-95.44022,163,4.0,indian,houston
Los Perros,29.7705,-95.40374,70,4.0,indian,houston
Fellini Caffè,29.718743376273,-95.4166178981476,403,4.0,indian,houston
CC's Creole Corner,29.7605800628662,-95.3696823120117,3,5.0,indian,houston
Christian's Tailgate - Downtown,29.7617716820067,-95.3602408908457,128,3.0,indian,houston
Front Porch Pub,29.75264,-95.37749,292,3.5,indian,houston
Shiva Indian Restaurant,29.71688,-95.41729,455,3.5,indian,houston
MC's Barbecue,29.8098730215812,-95.3267430514097,11,4.0,indian,houston
