Name,Latitude,Longitude,Votes,Rating,Type,City
Balzem,40.721408,-73.995415,415.0,4.0,mediterranean,ny
Alta,40.7345163811398,-73.9983369619683,1871.0,4.0,mediterranean,ny
Tableside Italian Cook Shoppe,40.7266287,-73.9863384,246.0,4.5,mediterranean,ny
Bijan's,40.68803,-73.98671,539.0,4.0,mediterranean,ny
Celestine,40.704676,-73.987975,204.0,4.0,mediterranean,ny
Savida,40.71645,-74.00783,66.0,4.5,mediterranean,ny
Miss Ada,40.689436,-73.9723809,199.0,4.5,mediterranean,ny
Gato,40.7255312,-73.9951947,1129.0,4.0,mediterranean,ny
Local 92,40.726957,-73.9885354,398.0,4.0,mediterranean,ny
Cathédrale Restaurant,40.7316,-73.98951,51.0,4.0,mediterranean,ny
Shuka,40.72707,-74.00283,408.0,4.0,mediterranean,ny
Yara,40.75646,-73.9662,81.0,4.5,mediterranean,ny
The Greek,40.7237145,-74.0096166,477.0,4.5,mediterranean,ny
Adalya,40.7362094701213,-73.9874085025025,127.0,4.0,mediterranean,ny
Cafe Mogador,40.719747,-73.959993,1145.0,4.5,mediterranean,ny
ilili,40.74435,-73.98778,2340.0,4.0,mediterranean,ny
RH Rooftop Restaurant,40.73985,-74.00639,252.0,4.0,mediterranean,ny
Ela Taverna,40.71916,-73.9586,121.0,4.0,mediterranean,ny
XYST,40.73874,-73.99444,293.0,4.5,mediterranean,ny
Au Za'atar,40.728901,-73.981185,793.0,4.0,mediterranean,ny
Kiki's,40.7144971858255,-73.9918553931336,581.0,4.0,mediterranean,ny
Mémé Mediterranean,40.736412,-74.00616,578.0,4.0,mediterranean,ny
Entwine,40.737398,-74.00796,210.0,4.0,mediterranean,ny
Jack's Wife Freda,40.72213,-73.99756,1853.0,4.0,mediterranean,ny
Glasserie,40.7376154,-73.9560697,354.0,4.0,mediterranean,ny
Dar 525,40.711266,-73.950317,459.0,4.5,mediterranean,ny
Galata Mediterranean Cuisine,40.74531,-73.97753,339.0,4.5,mediterranean,ny
Taboonette,40.7347009,-73.9927323,835.0,4.0,mediterranean,ny
Ayza Wine & Chocolate Bar,40.7471774721074,-73.987011312828,1631.0,4.0,mediterranean,ny
Covina,40.7423054,-73.9832149,336.0,4.5,mediterranean,ny
NAYA,40.7021301747589,-74.0118362768599,142.0,4.5,mediterranean,ny
CAVA,40.7337897786475,-73.9896078601189,279.0,4.5,mediterranean,ny
Voula,40.73235,-74.00222,93.0,4.5,mediterranean,ny
Nerai,40.7602,-73.97308,449.0,4.5,mediterranean,ny
Balaboosta,40.73769,-74.00584,40.0,4.0,mediterranean,ny
19 Cleveland By Nish Nush,40.72164,-73.99722,121.0,4.5,mediterranean,ny
La Goulette,40.71483,-73.96157,306.0,4.5,mediterranean,ny
Taverna Kyclades - East Village,40.7310782469639,-73.9825163036585,800.0,4.0,mediterranean,ny
Boulud Sud,40.7718614234522,-73.9816256082283,727.0,4.0,mediterranean,ny
Zyara NY,40.71964,-73.98507,153.0,4.5,mediterranean,ny
The Quarter Brooklyn,40.6874192552749,-73.9748689904809,170.0,4.0,mediterranean,ny
Zizi,40.74293,-74.00002,11.0,5.0,mediterranean,ny
Il Buco,40.72583,-73.99299,654.0,4.0,mediterranean,ny
Mazzat,40.684942,-74.003028,173.0,4.5,mediterranean,ny
Claudette,40.7330367619291,-73.9960286909289,370.0,4.0,mediterranean,ny
Seed,40.6754336,-73.9811254,187.0,4.0,mediterranean,ny
Lokal 83 Mediterranean Kitchen,40.7842696,-73.9734941,289.0,4.5,mediterranean,ny
Olea,40.6877844,-73.9706046,845.0,4.0,mediterranean,ny
Little Rascal,40.7208633,-73.9950497,218.0,4.0,mediterranean,ny
Miramar,40.70814,-74.01779,184.0,3.5,mediterranean,ny
The Little Owl,40.7323808291402,-74.0053009986877,1253.0,4.0,mediterranean,ny
The Greek Kitchen,40.7697614,-73.9881055,489.0,4.0,mediterranean,ny
Avlee Greek Kitchen,40.679911,-73.994879,254.0,4.5,mediterranean,ny
Ravagh Persian Grill,40.74564,-73.9855,756.0,4.0,mediterranean,ny
Della,40.65287,-73.97631,113.0,4.0,mediterranean,ny
Miznon,40.742575,-74.006206,309.0,4.0,mediterranean,ny
Bustan,40.7859082,-73.9759551,495.0,4.0,mediterranean,ny
Apollonia,40.70785,-73.94476,28.0,4.5,mediterranean,ny
Taboon,40.7661052157931,-73.9909893717713,643.0,4.0,mediterranean,ny
Naya Mezze & Grill,40.758541,-73.966255,501.0,4.0,mediterranean,ny
Tanoreen,40.6308,-74.02775,819.0,4.0,mediterranean,ny
Estiatorio Milos,40.76368,-73.97922,870.0,4.0,mediterranean,ny
Tava Turkish Mediterranean,40.673165,-73.983292,154.0,4.5,mediterranean,ny
Mint Kitchen,40.73345,-73.99301,108.0,4.5,mediterranean,ny
Fig & Olive - Meatpacking,40.7406284811719,-74.0068594359003,1341.0,3.5,mediterranean,ny
Tessa,40.7814059,-73.97918,369.0,4.0,mediterranean,ny
Zooba,40.7212932028146,-73.997309692204,43.0,4.5,mediterranean,ny
Doner Kebab NYC,40.69216,-73.98755,165.0,4.5,mediterranean,ny
Four Five Six,40.719181,-73.943149,50.0,4.5,mediterranean,ny
Pheasant,40.7185,-73.9452,69.0,4.5,mediterranean,ny
Avra Estiatorio,40.75513,-73.97245,853.0,4.0,mediterranean,ny
Kashkaval Garden,40.766758,-73.986144,557.0,4.0,mediterranean,ny
Snack Taverna,40.731033,-74.004814,323.0,4.0,mediterranean,ny
CAFÉ MEDI,40.7199,-73.98803,258.0,3.5,mediterranean,ny
Balade,40.730251,-73.983001,680.0,4.0,mediterranean,ny
Faros Restaurant,40.6749,-73.97532,204.0,4.0,mediterranean,ny
Taverna Kyclades,40.7753227,-73.909217,2220.0,4.0,mediterranean,ny
Marlow Bistro,40.8028109023738,-73.9641991912535,272.0,4.0,mediterranean,ny
Pasha Restaurant,40.7765809,-73.9790791,391.0,4.0,mediterranean,ny
Jack's Wife Freda,40.729826,-74.003516,829.0,4.0,mediterranean,ny
Thalassa Restaurant,40.7193085,-74.0095971,400.0,4.0,mediterranean,ny
Ousia,40.7707946574904,-73.992433445755,224.0,4.0,mediterranean,ny
Astoria Seafood,40.754,-73.9298699,636.0,4.0,mediterranean,ny
Mamoun's Falafel,40.7302874,-74.0004383,2356.0,4.0,mediterranean,ny
Ella Kitchen & Bar,40.7770496467021,-73.9788913948279,490.0,4.0,mediterranean,ny
Ravagh Persian Grill,40.7618025365842,-73.9605525538847,288.0,4.0,mediterranean,ny
Mémé Mediterranean,40.760929,-73.994827,273.0,4.0,mediterranean,ny
CAVA,40.6925169,-73.988608,52.0,4.0,mediterranean,ny
Sumela Mediterranean Cafe & Grill,40.7750785978051,-73.950450334847,118.0,4.5,mediterranean,ny
Loi Estiatorio,40.765385,-73.978002,343.0,4.5,mediterranean,ny
Fig & Olive - Fifth Ave,40.7594108995958,-73.9755487419944,1142.0,3.5,mediterranean,ny
Beyoglu,40.7754199,-73.9562399,1131.0,4.0,mediterranean,ny
The Drunken Horse,40.748073,-74.004226,126.0,4.0,mediterranean,ny
Ringolevio,40.71907,-73.94337,274.0,4.5,mediterranean,ny
Marseille,40.759806,-73.991378,875.0,4.0,mediterranean,ny
Arco Cafe,40.7988462,-73.967065,259.0,4.5,mediterranean,ny
Benno,40.74388,-73.98705,28.0,4.5,mediterranean,ny
Astoria Seafood and Grill,40.76586,-73.91304,71.0,4.5,mediterranean,ny
Eva's Kitchen,40.732822,-73.997152,394.0,4.5,mediterranean,ny
Miriam,40.6801719843659,-73.9777555239717,982.0,4.0,mediterranean,ny
ZAVŌ Restaurant & Lounge,40.7622655124751,-73.9659871403697,124.0,4.0,mediterranean,ny
CAVA,40.721964,-73.996499,72.0,4.0,mediterranean,ny
Mezetto,40.7228863781236,-73.9889362576721,587.0,4.0,mediterranean,ny
Kefi,40.78332,-73.97946,143.0,4.0,mediterranean,ny
Avra Madison,40.7644,-73.97166,262.0,4.0,mediterranean,ny
Cibo E Vino,40.790206,-73.9749174,309.0,4.0,mediterranean,ny
Balade - Your Way,40.7524299621582,-73.9887237548828,341.0,4.5,mediterranean,ny
Antique Garage Tribeca,40.71972,-74.00397,93.0,4.0,mediterranean,ny
Antique Garage Soho,40.72152,-74.00142,403.0,3.5,mediterranean,ny
CAVA,40.7541862,-73.9819133,56.0,4.5,mediterranean,ny
Eléa,40.78754,-73.9765199,77.0,4.0,mediterranean,ny
Il Fiorista,40.74413,-73.98955,14.0,4.5,mediterranean,ny
Rintintin,40.721146,-73.994904,165.0,3.5,mediterranean,ny
Petisco Vegano,40.713928,-73.988805,24.0,5.0,mediterranean,ny
One Lenox,40.76106,-73.96124,56.0,4.5,mediterranean,ny
Heights Falafel,40.698551,-73.992706,230.0,4.0,mediterranean,ny
Dua Kafe,40.72979,-73.97924,48.0,4.5,mediterranean,ny
Limani,40.7593809598193,-73.9778140767212,411.0,4.0,mediterranean,ny
Taheni Mediterranean Grill,40.67742,-73.98343,215.0,4.5,mediterranean,ny
Turkish Kitchen,40.74189,-73.98136,560.0,4.0,mediterranean,ny
ABA Turkish Restaurant,40.7672794037324,-73.9838727571167,499.0,4.0,mediterranean,ny
Underhill Brooklyn,40.67942,-73.96554,55.0,4.5,mediterranean,ny
Mamoun's Falafel,40.7288849575335,-73.988463348408,1160.0,4.0,mediterranean,ny
Pita Palace,40.7172485,-73.9448511,220.0,5.0,mediterranean,ny
Taim West Village,40.736002376347,-74.0019588366439,1514.0,4.5,mediterranean,ny
Ba'al Cafe & Falafel,40.7244699,-74.0039,279.0,4.5,mediterranean,ny
Barbounia,40.7382,-73.98804,1224.0,3.5,mediterranean,ny
Byblos Restaurant,40.74423,-73.98571,215.0,4.0,mediterranean,ny
Hummus Kitchen,40.76427,-73.98797,766.0,4.0,mediterranean,ny
Ovelia,40.765901,-73.918718,716.0,4.0,mediterranean,ny
Oasis,40.7177548450764,-73.9573632606763,612.0,4.0,mediterranean,ny
Merakia,40.74073,-73.99104,149.0,4.0,mediterranean,ny
Zerza Moroccan Kitchen,40.7185503577207,-73.9883098751306,11.0,4.5,mediterranean,ny
Feb 30,40.7296088493,-74.000741847,9.0,5.0,mediterranean,ny
Shoo Shoo,40.72015,-73.99623,61.0,4.5,mediterranean,ny
Sakib,40.712023,-73.962702,13.0,4.0,mediterranean,ny
Under The Bridge,40.7596400253254,-73.9623098820448,190.0,4.0,mediterranean,ny
Barca,40.6288650963294,-74.0735902287378,84.0,4.5,mediterranean,ny
NOMO Kitchen,40.7198301,-74.0000708,511.0,3.5,mediterranean,ny
Sultan Restaurant & Cafe Lounge,40.69027,-73.99503,82.0,4.0,mediterranean,ny
Omar's Mediterranean Cuisine,40.751888,-73.981211,152.0,4.0,mediterranean,ny
Tru Astoria,40.774546,-73.908168,353.0,4.0,mediterranean,ny
Kabob Shack,40.710663537386,-73.957783053073,165.0,4.0,mediterranean,ny
CAVA,40.7408422,-73.9855104,159.0,4.0,mediterranean,ny
Vino Levantino,40.7929478710728,-73.9720784291819,227.0,4.0,mediterranean,ny
Athena Mediterranean Cuisine,40.66476,-73.98648,330.0,4.5,mediterranean,ny
Kazuza,40.72602,-73.98393,484.0,4.0,mediterranean,ny
Istanbul Park,40.667868,-73.980688,314.0,3.5,mediterranean,ny
Ted's Corner Tavern,40.7462,-73.9774599,196.0,4.5,mediterranean,ny
Loukoumi Taverna,40.77079,-73.90268,435.0,4.5,mediterranean,ny
Sahara's Turkish Cuisine,40.74143,-73.97854,241.0,3.5,mediterranean,ny
NAYA,40.7516816,-73.9739628,403.0,4.0,mediterranean,ny
The Halal Guys,40.7323060751209,-73.9843906361069,751.0,3.5,mediterranean,ny
Leyla,40.77882,-73.97834,59.0,4.5,mediterranean,ny
Skewr Kabob Kitchen,40.7405,-73.98752,108.0,4.5,mediterranean,ny
Yefsi Estiatorio,40.7710007,-73.9509195,307.0,4.0,mediterranean,ny
Istanbul Kebab House,40.76256,-73.98941,531.0,4.0,mediterranean,ny
Estiatorio Milos,40.7491302490234,-73.9923629760742,101.0,3.5,mediterranean,ny
Akdeniz Mediterranean Restaurant,40.756519714277,-73.9800018306885,391.0,4.0,mediterranean,ny
Molyvos,40.7644338,-73.9806394,483.0,3.5,mediterranean,ny
Hummus Kitchen,40.7763650431587,-73.9529693360589,788.0,4.0,mediterranean,ny
Koroni Souvlaki and Grill,40.768544,-73.92121,241.0,5.0,mediterranean,ny
Miraj Healthy Grill,40.7464441,-73.9802022,122.0,4.5,mediterranean,ny
CAVA,40.705912,-74.0087867,14.0,3.5,mediterranean,ny
Fig & Olive - Uptown,40.7644,-73.96691,415.0,3.5,mediterranean,ny
EONS Greek Food for Life,40.74528,-73.97588,313.0,4.0,mediterranean,ny
Le Souk Restaurant,40.72793,-73.99928,404.0,3.0,mediterranean,ny
Aliada,40.76254,-73.926199,364.0,4.0,mediterranean,ny
Telly's Taverna,40.775355401246,-73.9140461748688,327.0,4.0,mediterranean,ny
Ten Hope,40.713658,-73.957576,18.0,4.5,mediterranean,ny
Cevabdzinica Sarajevo,40.75703,-73.92189,150.0,4.0,mediterranean,ny
Village Taverna,40.73339,-73.99306,293.0,3.5,mediterranean,ny
Romanian Garden,40.7449088452058,-73.921469294812,120.0,3.5,mediterranean,ny
Deniz Turkish Mediterranean Cuisine,40.6865844726562,-73.9756927490234,246.0,3.5,mediterranean,ny
Crisp,40.753698,-73.985967,394.0,4.0,mediterranean,ny
Brothers Taverna,40.770903,-73.908172,154.0,4.5,mediterranean,ny
Roti Modern Mediterranean,40.706518,-74.007133,260.0,4.0,mediterranean,ny
Bite,40.733163,-73.986158,607.0,4.0,mediterranean,ny
NAYA,40.75885,-73.97504,37.0,4.0,mediterranean,ny
Pergola,40.745513,-73.989513,749.0,3.5,mediterranean,ny
Pi Bakerie,40.72361,-74.00329,257.0,4.5,mediterranean,ny
Arabesque,40.74929,-73.98317,402.0,3.5,mediterranean,ny
Meze,40.62523,-74.00211,301.0,4.0,mediterranean,ny
Souk El Shater,40.74385,-73.92113,215.0,4.5,mediterranean,ny
Lavatera Grill,40.69126,-73.99072,40.0,4.0,mediterranean,ny
Mimi's Hummus,40.64035,-73.9667,350.0,4.0,mediterranean,ny
West Wine Bar,40.7288678069569,-73.9592349202377,41.0,4.5,mediterranean,ny
Bagatelle,40.739654,-74.005915,721.0,3.5,mediterranean,ny
Anassa Taverna,40.762037,-73.9660633,299.0,3.5,mediterranean,ny
Barcha,40.79554,-73.93596,12.0,4.5,mediterranean,ny
Taci's Beyti,40.60956,-73.96209,691.0,4.5,mediterranean,ny
Arba,40.78438,-73.97392,18.0,4.5,mediterranean,ny
Agnanti,40.7809792,-73.9179077,446.0,3.5,mediterranean,ny
Newtown,40.7091391,-73.9372268,128.0,4.5,mediterranean,ny
Lezzet Mediterranean Turkish Restaurant,40.763478,-73.967816,8.0,5.0,mediterranean,ny
Sofra Mediterranean Grill,40.7427447283466,-73.9188283760369,60.0,4.0,mediterranean,ny
Abuqir Seafood,40.7683,-73.9110794,111.0,5.0,mediterranean,ny
Queen's Room,40.7741316,-73.9082624,123.0,4.5,mediterranean,ny
Lavatera Grill Dumbo,40.70274,-73.99355,15.0,3.5,mediterranean,ny
Cleo,40.743973,-73.981324,107.0,4.0,mediterranean,ny
Darna Falafel,40.6870474589747,-73.9938177876969,212.0,4.0,mediterranean,ny
Gardenia Terrace,40.7675581,-73.9892952,178.0,4.0,mediterranean,ny
3Greeks Grill,40.762035,-73.942101,124.0,4.0,mediterranean,ny
Casa La Femme,40.73404,-74.0083499,572.0,3.5,mediterranean,ny
Rustic Table,40.759624,-73.9958265,811.0,4.0,mediterranean,ny
Gennaro,40.79178,-73.9718,380.0,3.5,mediterranean,ny
CAVA,40.741658,-73.99337,36.0,4.5,mediterranean,ny
Balade Your Way,40.75245,-73.98081,27.0,4.5,mediterranean,ny
Kellari Taverna,40.7555313110352,-73.980827331543,602.0,3.5,mediterranean,ny
HaSalon,40.7648145508807,-73.9921808797062,63.0,3.0,mediterranean,ny
The Hummus & Pita,40.71474,-74.00671,192.0,4.0,mediterranean,ny
FLÉ-FLÉ Grill,40.74508,-73.99843,92.0,4.5,mediterranean,ny
The Hummus & Pita,40.73928,-73.99605,629.0,4.0,mediterranean,ny
BlackSea Fish & Grill,40.7301,-73.863538,337.0,4.0,mediterranean,ny
The Lexington Social,40.79057,-73.94768,188.0,3.5,mediterranean,ny
Qanoon,40.74524,-74.00202,37.0,4.0,mediterranean,ny
Jayleen's Special Mediterranean Cuisine,40.7057809440762,-74.0075895935297,53.0,4.0,mediterranean,ny
Zatar,40.6638,-73.98067,60.0,4.0,mediterranean,ny
Eat Offbeat,40.727033,-74.0058979,12.0,5.0,mediterranean,ny
Hummus Market,40.715385,-73.944839,166.0,4.5,mediterranean,ny
Medi Winebar,40.765861,-73.987418,405.0,3.5,mediterranean,ny
Nefista Vegan Kofteh,40.729414,-74.000735,13.0,5.0,mediterranean,ny
Turkuaz Restaurant,40.7643988,-73.9855199,121.0,4.5,mediterranean,ny
Gemelli,40.70831,-73.92027,43.0,4.0,mediterranean,ny
Sam's Falafel Stand,40.7090396819627,-74.0113380915443,195.0,4.5,mediterranean,ny
Taverna On The Bay,40.6259299,-74.0750599,98.0,4.5,mediterranean,ny
Green Fig,40.75912,-73.9956,140.0,3.5,mediterranean,ny
Elite Williamsburg,40.71609,-73.96286,3.0,5.0,mediterranean,ny
Pomp & Circumstance Dining,40.714166,-73.949612,12.0,5.0,mediterranean,ny
Fournos Theophilos,40.75194,-73.98945,27.0,4.0,mediterranean,ny
Vish Hummus & Happiness,40.71684,-73.96197,16.0,4.5,mediterranean,ny
Stamatis Restaurant,40.7750206,-73.9133301,389.0,4.0,mediterranean,ny
Champignon,40.7432661,-73.9964326,249.0,3.5,mediterranean,ny
North Miznon,40.77843,-73.98079,120.0,3.5,mediterranean,ny
Marmar,40.63092,-74.10174,183.0,4.0,mediterranean,ny
Taim Nolita,40.7219978459617,-73.9961312441527,486.0,4.0,mediterranean,ny
Settepani,40.80435,-73.94766,208.0,3.5,mediterranean,ny
Zenon Taverna,40.762819,-73.920872,508.0,4.0,mediterranean,ny
Bodrum Mediterranean Restaurant,40.78935,-73.97411,378.0,4.0,mediterranean,ny
Ali Baba's Turkish Cuisine,40.75236,-73.97001,275.0,3.0,mediterranean,ny
Mombar,40.767456,-73.91246,152.0,4.0,mediterranean,ny
8th Hill,40.7804353,-73.9764397,29.0,4.0,mediterranean,ny
The Chick Shop,40.75537,-73.97054,60.0,4.5,mediterranean,ny
Greek Xpress,40.65843,-73.98171,98.0,4.0,mediterranean,ny
The Family Store,40.63544,-74.026,165.0,4.5,mediterranean,ny
Sammy's Halal,40.75276,-73.9853,168.0,4.0,mediterranean,ny
King of Falafel & Shawarma - Cart,40.7592340480098,-73.972864948706,151.0,4.5,mediterranean,ny
Zatar,40.6980763644669,-73.9245712108767,99.0,4.5,mediterranean,ny
Symposium Greek Restaurant,40.805419921875,-73.9643325805664,180.0,3.5,mediterranean,ny
Pita Gyro And Grill,40.7079434,-73.8974053,92.0,4.0,mediterranean,ny
Spiegel,40.723690032959,-73.98783,330.0,4.0,mediterranean,ny
First Oasis,40.61803,-74.03065,161.0,4.0,mediterranean,ny
Bite,40.7257318645125,-73.9946338116395,258.0,4.0,mediterranean,ny
Hamido Seafood,40.7750008,-73.9095623,99.0,4.5,mediterranean,ny
Turco Mediterranean Grill,40.75913,-73.9918,544.0,4.0,mediterranean,ny
3 Guys Gyro,40.70626,-73.94319,28.0,4.5,mediterranean,ny
Sunshine - Hummus,40.7310806539702,-73.9934370902108,76.0,5.0,mediterranean,ny
Truva Cafe and Grill,40.7750966778383,-73.9116586888159,349.0,4.0,mediterranean,ny
Blue,40.645338,-74.107791,305.0,4.0,mediterranean,ny
Memo Shish Kebab - Brooklyn,40.610334319877,-73.954959538747,296.0,3.5,mediterranean,ny
Chick P,40.68056,-73.97425,246.0,4.5,mediterranean,ny
Hayaty NYC,40.7259195,-73.9838009,151.0,3.5,mediterranean,ny
Paprika kosher,40.74727,-73.9822,101.0,4.0,mediterranean,ny
Pangea,40.730472,-73.9859,133.0,3.5,mediterranean,ny
Cafe Centro,40.7540842395185,-73.9765333888855,157.0,3.5,mediterranean,ny
Dill & Parsley,40.75666,-73.98335,28.0,4.0,mediterranean,ny
Molos,40.7713706622218,-74.0132697254743,469.0,3.5,mediterranean,ny
Pera Mediterranean Brasserie,40.75228,-73.9795,398.0,3.5,mediterranean,ny
Roti Modern Mediterranean,40.7515315,-73.9745342,216.0,4.0,mediterranean,ny
Cafe Mocha,40.72781,-73.98803,336.0,3.5,mediterranean,ny
Blue Seafood Bar,40.76685,-73.98615,145.0,3.5,mediterranean,ny
BZ Grill,40.7707089557698,-73.9213913349876,609.0,4.0,mediterranean,ny
Pink Moose,40.75911,-73.96212,140.0,4.5,mediterranean,ny
Boutique Bistro Bar,40.775414,-73.9093017,60.0,4.5,mediterranean,ny
Gyro World Astoria,40.764944,-73.917251,100.0,4.0,mediterranean,ny
Ukus,40.762977451086,-73.9131711423397,77.0,4.0,mediterranean,ny
This Is Gyro,40.71571,-74.0075,31.0,4.0,mediterranean,ny
Hummus Place,40.780044,-73.98027,603.0,4.0,mediterranean,ny
The Halal Guys,40.7935457420759,-73.9709761352962,371.0,3.5,mediterranean,ny
The Hummus & Pita,40.7556856020028,-73.9907276053871,381.0,4.0,mediterranean,ny
Gazala's,40.78458,-73.97706,64.0,3.5,mediterranean,ny
NAYA,40.763121,-73.977025,204.0,4.0,mediterranean,ny
Dill & Parsley,40.7560462224459,-73.9703554478851,141.0,3.5,mediterranean,ny
The Blue Rooftop,40.74526,-73.98163,27.0,3.5,mediterranean,ny
Falafel Tanami,40.6196559,-73.9582359,32.0,5.0,mediterranean,ny
Middle Eats,40.74412,-73.9953,63.0,4.0,mediterranean,ny
Farah Anatolia,40.76146,-73.96029,191.0,3.5,mediterranean,ny
Dill & Parsley,40.7517080181873,-73.9794427706933,16.0,4.0,mediterranean,ny
Mangal Kebab,40.7428106,-73.918186,280.0,4.0,mediterranean,ny
Nanoosh,40.77586,-73.98165,417.0,3.5,mediterranean,ny
Shawarmania,40.7749304,-73.9119036,233.0,4.0,mediterranean,ny
Sammy's Halal,40.72686,-73.98609,14.0,4.0,mediterranean,ny
Pita Hot,40.7686506,-73.9248121,279.0,4.0,mediterranean,ny
Gazala Place,40.76265,-73.98978,370.0,3.5,mediterranean,ny
Anemos Estiatorio,40.7559948562588,-73.9193926972807,15.0,4.5,mediterranean,ny
Nanoosh,40.73425,-73.99233,253.0,3.5,mediterranean,ny
Pera Soho,40.7238251309896,-74.0032896944427,508.0,3.5,mediterranean,ny
Seven Seeds,40.72161,-73.95884,2.0,3.5,mediterranean,ny
Telio,40.7924,-73.97376,139.0,3.5,mediterranean,ny
Mr Falafel,40.670295715332,-73.9790954589844,190.0,4.0,mediterranean,ny
Amaranth Restaurant,40.765811920166,-73.9702758789062,88.0,3.0,mediterranean,ny
Open Kitchen,40.709234,-74.006897,104.0,3.5,mediterranean,ny
Sous Vide Kitchen - A Virtual Food Hall,40.73995,-73.98538,30.0,3.5,mediterranean,ny
The Dish,40.74373,-74.0,214.0,3.5,mediterranean,ny
la tabun,40.62255,-73.96441,13.0,4.0,mediterranean,ny
Viand,40.7856907,-73.972613,86.0,4.0,mediterranean,ny
NY Gyro Xpress,40.74194,-74.0007,114.0,4.0,mediterranean,ny
Casa Barilla,40.7608455063764,-73.9793730976227,278.0,3.0,mediterranean,ny
Grill 212,40.78402,-73.97887,163.0,4.0,mediterranean,ny
Social Drink and Food,40.75912,-73.9956,46.0,4.0,mediterranean,ny
Mama Ganoush,40.73564,-73.99409,5.0,4.0,mediterranean,ny
Gyrohouse NYC,40.7088103,-74.0108584,36.0,4.0,mediterranean,ny
House of Gyro & Shawarma,40.7029817917887,-73.8951639856217,46.0,4.0,mediterranean,ny
Bosna Express,40.7047891351813,-73.9024043465156,61.0,4.0,mediterranean,ny
Oasis Falafel,40.728935,-73.950164,71.0,4.0,mediterranean,ny
Dill & Parsley,40.706162,-74.006831,4.0,3.5,mediterranean,ny
Horus Café on A,40.727917,-73.982006,338.0,3.0,mediterranean,ny
CAVA,40.716799944155,-74.0355072729312,141.0,4.0,mediterranean,ny
CAVA,40.7528718388986,-73.9876741598475,52.0,3.5,mediterranean,ny
Seven Hills Mediterranean Grill,40.7780303955078,-73.9809875488281,216.0,3.5,mediterranean,ny
Yemen Cuisine,40.634918,-74.020725,77.0,4.0,mediterranean,ny
The Salty Snapper,40.73205,-74.00215,3.0,5.0,mediterranean,ny
Egypt Royal Cuisine,40.7615637189449,-73.9165577,69.0,3.5,mediterranean,ny
Momo's Mediterranean Grill,40.679426,-73.863661,33.0,4.0,mediterranean,ny
Natureworks,40.745068,-73.981859,247.0,4.0,mediterranean,ny
Bite,40.74189,-73.99305,303.0,4.0,mediterranean,ny
Hummus Inc,40.69121,-73.98331,5.0,4.5,mediterranean,ny
Open Kitchen,40.746926,-73.982776,131.0,3.5,mediterranean,ny
Pita Pan,40.67194,-73.9771899,164.0,4.0,mediterranean,ny
Harissa Grill,40.7430133,-73.9363643,10.0,3.5,mediterranean,ny
Taim Midtown,40.75686,-73.97228,62.0,4.0,mediterranean,ny
Falafel Spot,40.64018,-73.91898,23.0,4.5,mediterranean,ny
The Roadside Grill,40.767695,-73.9642,11.0,4.5,mediterranean,ny
Angelina Cafe,40.723511,-73.9856494,141.0,3.5,mediterranean,ny
NYC Falafel,40.7225149191837,-73.9890300482512,47.0,4.0,mediterranean,ny
Sido Falafel & More,40.7775898,-73.9785419,160.0,4.0,mediterranean,ny
Empire Gyro,40.72246,-73.98856,60.0,3.5,mediterranean,ny
Damas Falafel House,40.693359375,-73.9695205688477,113.0,3.5,mediterranean,ny
Dionysos Restaurant,40.77384,-73.91306,62.0,4.5,mediterranean,ny
Le Sajj,40.6237164,-74.0248142,100.0,3.5,mediterranean,ny
Maoz Falafel & Grill,40.7580133,-73.9892434,217.0,3.5,mediterranean,ny
Cleopatra's Needle,40.7924512,-73.9736557,252.0,2.5,mediterranean,ny
Rafiqi's,40.7457632378467,-73.9822179389687,34.0,4.5,mediterranean,ny
Healthy Choice Kitchen,40.708203,-73.943629,108.0,4.0,mediterranean,ny
Seven Valleys,40.74845,-74.0278699,72.0,4.5,mediterranean,ny
Royal Falafel & Shawarma,40.729,-73.95034,4.0,4.5,mediterranean,ny
Samakmak Seafood,40.72675,-74.07624,73.0,4.5,mediterranean,ny
Pita Press,40.7070857,-74.0080807,181.0,3.5,mediterranean,ny
Anka Grill,40.7593033,-73.9705061,213.0,3.5,mediterranean,ny
Marina Seafood & Restaurant,40.7685223,-73.9109765,8.0,5.0,mediterranean,ny
Bushwick Pita Palace,40.70753,-73.93965,200.0,3.5,mediterranean,ny
Ali Baba,40.747742,-74.028024,264.0,4.0,mediterranean,ny
Teta's Kitchen,40.771159,-73.927196,1.0,5.0,mediterranean,ny
Elias Corner,40.7722769546621,-73.9158142188523,188.0,3.5,mediterranean,ny
Zyara Restaurant,40.76648,-73.91251,121.0,4.0,mediterranean,ny
Taboonette,40.72945,-74.00487,2.0,4.5,mediterranean,ny
Gyro Grill,40.72412,-73.86956,188.0,3.5,mediterranean,ny
Abide Brooklyn Pita,40.6677219825185,-73.9807175472379,87.0,3.5,mediterranean,ny
Le Reve,40.759871,-73.971123,281.0,2.5,mediterranean,ny
Hush Cafe Lounge & Garden,40.727355,-73.892555,77.0,3.5,mediterranean,ny
Istanbul Grill,40.73988,-74.00322,126.0,3.5,mediterranean,ny
Hudson Kebab House,40.78216,-74.01208,132.0,4.5,mediterranean,ny
Orient Express Cocktail Bar,40.73573,-74.00746,117.0,3.5,mediterranean,ny
Moshe's Falafel,40.7572741280559,-73.9820981359181,103.0,4.0,mediterranean,ny
Stefanos Mediterranean Grille,40.7864566,-74.0454879,202.0,4.0,mediterranean,ny
Taim FiDi,40.70769,-74.00767,59.0,3.5,mediterranean,ny
Lavash,40.63899,-73.99872,18.0,4.0,mediterranean,ny
Earth Cafe,40.7954099,-73.9709,196.0,3.5,mediterranean,ny
Cafe Istanbul,40.76666,-73.91237,23.0,4.0,mediterranean,ny
Nanoosh,40.7472875,-73.9832812,172.0,3.0,mediterranean,ny
Mamoun's Falafel Restaurant,40.7401318573625,-74.0303168019912,740.0,4.0,mediterranean,ny
Taheni Mediterranean Grill,40.6650377515107,-73.9798863371133,10.0,4.5,mediterranean,ny
Casablanca Grill,40.76153,-73.96021,94.0,3.5,mediterranean,ny
Memo Shish Kebab,40.7428577,-73.9931724,89.0,3.5,mediterranean,ny
Grill Point - Brooklyn,40.60807,-73.96114,4.0,5.0,mediterranean,ny
Baba Ghanouge,40.71511,-74.00758,146.0,3.0,mediterranean,ny
Colbeh,40.75207,-73.98402,135.0,2.5,mediterranean,ny
Georges Souvlaki of Astoria & More,40.6282043457031,-74.0133209228516,79.0,4.0,mediterranean,ny
Milk + Honey,40.70944,-74.01012,33.0,2.5,mediterranean,ny
Greek Taverna,40.8064400881056,-73.9873175009109,232.0,3.5,mediterranean,ny
Kebab Istanbul,40.7906581,-74.0228635,148.0,4.0,mediterranean,ny
Effy's Kitchen,40.7693069,-73.95823,88.0,4.0,mediterranean,ny
Jerusalem Restaurant,40.7997299,-73.96852,165.0,3.0,mediterranean,ny
Taim Flatiron,40.74205,-73.9931,40.0,3.5,mediterranean,ny
Mr Broadway,40.75236,-73.98724,274.0,2.5,mediterranean,ny
Rainbow Falafel,40.7372248917818,-73.9907332509756,151.0,3.5,mediterranean,ny
Good Eats Bistro,40.7703,-73.86972,2.0,4.5,mediterranean,ny
Dill & Parsley,40.75696,-73.9759,43.0,3.5,mediterranean,ny
Halal Munchies,40.76693,-73.91214,38.0,4.0,mediterranean,ny
Think Sweet,40.60441,-73.96928,39.0,4.5,mediterranean,ny
Saba Restaurant and Grill,40.7659607,-73.9129715,36.0,3.5,mediterranean,ny
Uncle Gussy's,40.752301,-73.921294,21.0,3.5,mediterranean,ny
Falafel Cart,40.6691895,-73.9862823,4.0,5.0,mediterranean,ny
Uncle Nick's Mediterranian Gyro & Grill,40.7266081503301,-73.8707436250969,23.0,4.5,mediterranean,ny
Zavō Private Dining & Lounge,40.76217,-73.96584,15.0,4.0,mediterranean,ny
King Of Falafel & Shawarma,40.7625350006733,-73.9265849989006,3.0,5.0,mediterranean,ny
Cafe 82,40.78579,-73.97821,137.0,3.5,mediterranean,ny
ilili Box,40.758712,-73.988281,58.0,3.5,mediterranean,ny
Saba's Pizza - UPPER EAST,40.77711,-73.95716,70.0,3.5,mediterranean,ny
ilili Box,40.71897,-74.00102,22.0,3.0,mediterranean,ny
The Attic Hookah Cafe,40.63571,-74.02344,9.0,4.5,mediterranean,ny
Babylon Soho,40.7233409,-74.0035484,16.0,3.0,mediterranean,ny
Izmir Delights Mediterranean Catering,40.75502,-73.96913,3.0,5.0,mediterranean,ny
Franky's Souvlaki,40.76806,-73.92451,1.0,5.0,mediterranean,ny
Chobana,40.62332,-74.03129,30.0,4.0,mediterranean,ny
Olympia Pita,40.62304,-73.96449,68.0,3.0,mediterranean,ny
Luxor Lounge,40.72973,-74.0004,114.0,2.5,mediterranean,ny
Meatpoint,40.74989,-73.99425,1.0,4.0,mediterranean,ny
Nanoosh,40.75942,-73.97979,84.0,2.5,mediterranean,ny
Kalamaki,40.71684,-73.96197,1.0,4.0,mediterranean,ny
Cafe Talya,40.6844885741496,-74.1073497064864,242.0,5.0,mediterranean,ny
Rafiqi's Delicious Food,40.7404425253104,-73.9945895042632,39.0,3.5,mediterranean,ny
Pizza & Pita,40.74382,-73.97401,58.0,3.5,mediterranean,ny
Flatbread Grill,40.742729,-74.028976,104.0,3.5,mediterranean,ny
Mordi's Schnitzel Truck,40.7144933,-74.0337762,75.0,4.5,mediterranean,ny
Balkan Bites,40.75587,-73.99435,1.0,4.0,mediterranean,ny
Stix Bar and Grill,40.7467918,-73.9917221,17.0,3.0,mediterranean,ny
Mediterraneo Restaurant,40.67931,-74.10486,46.0,3.5,mediterranean,ny
Platter King,40.80032,-74.00733,150.0,4.0,mediterranean,ny
Le Chateau,40.79095,-74.00493,21.0,4.0,mediterranean,ny
ELIS WINE BAR & RESTAURANT,40.80288,-73.964352,2.0,3.5,mediterranean,ny
Zaytoon Mediteranean American Grill,40.633968,-74.020553,5.0,3.0,mediterranean,ny
Al Ameera Restaurant,40.7854854567643,-74.0230022403715,59.0,4.0,mediterranean,ny
Garbanzo Grill,40.77227,-74.02148,128.0,3.0,mediterranean,ny
Oshi's Cafe,40.6099699,-73.9439699,7.0,5.0,mediterranean,ny
Pasha Pizza Pita,40.67757,-73.95881,52.0,3.0,mediterranean,ny
Alan's Falafel WTC 2,40.7129026987486,-74.0115505456924,5.0,3.5,mediterranean,ny
Baidar Cafe,40.63645,-74.02593,28.0,4.0,mediterranean,ny
Teddy's Place,40.6658802,-74.1170519,97.0,4.0,mediterranean,ny
Djerdan Burek Brooklyn,40.612799,-73.979118,20.0,3.5,mediterranean,ny
FalafaLafa,40.63947,-73.99088,1.0,5.0,mediterranean,ny
Ridgewood Eats,40.7007478,-73.9039347,322.0,2.5,mediterranean,ny
Gyro King,40.63194,-74.02777,14.0,3.5,mediterranean,ny
Natureworks Restaurant - 55th St,40.7625320732333,-73.9769082392868,79.0,3.5,mediterranean,ny
Falafel Off The Korner,40.6087,-73.97174,84.0,3.5,mediterranean,ny
Pitopia,40.7477,-73.98239,207.0,3.0,mediterranean,ny
Gyros Stand,40.762363,-73.979016,3.0,5.0,mediterranean,ny
Markato,40.763639,-73.978951,8.0,3.0,mediterranean,ny
Cafe Gusto,40.707773,-74.005585,12.0,3.0,mediterranean,ny
Taj Kebab,40.6357977915453,-73.9744790794079,11.0,2.5,mediterranean,ny
Indian Food & Falafel,40.634593,-74.020967,25.0,3.5,mediterranean,ny
Bahry Fish Market and Restaurant,40.63352,-74.02134,11.0,4.0,mediterranean,ny
The Pocketful,40.7600994,-73.9818092,39.0,4.0,mediterranean,ny
La Lune,40.7258067280054,-73.9837789535522,9.0,3.0,mediterranean,ny
Kwik Meal,40.7567014,-73.9828935,5.0,4.0,mediterranean,ny
Santorini Grill,40.67142,-74.1181,40.0,3.5,mediterranean,ny
Maison Vivienne New York,40.76309,-73.96868,2.0,1.5,mediterranean,ny
Yummy Fawl and Falafel Cart,40.7127682,-74.0096605,1.0,4.0,mediterranean,ny
grill n dine,40.63828,-73.96871,4.0,3.0,mediterranean,ny
Babaghanouge,40.710636,-74.007965,4.0,2.5,mediterranean,ny
Ibby's Falafel,40.71885,-74.0438099,383.0,3.0,mediterranean,ny
A-1 Grill,40.65895,-74.1228299,37.0,4.0,mediterranean,ny
Gyro Stand,40.74193,-73.9909,1.0,4.0,mediterranean,ny
Döner Xpress,40.796315,-74.003648,2.0,5.0,mediterranean,ny
Mr Grillooo,40.6458117964899,-73.9029653902864,3.0,3.5,mediterranean,ny
Pita Pan,40.76456,-73.9158099,24.0,3.0,mediterranean,ny
Pita Pit,40.74575,-74.02869,41.0,3.5,mediterranean,ny
Good Eats Grill,40.74333,-73.91866,1.0,4.0,mediterranean,ny
Zerzura,40.73993,-74.00584,2.0,3.0,mediterranean,ny
Pure Pita,40.74096,-74.03016,179.0,2.5,mediterranean,ny
Newyork Style Halal Chicken & Rice,40.68216,-74.10303,1.0,4.0,mediterranean,ny
Santa Maria Restaurant and Brick Oven Pizzeria,40.728824,-74.062179,40.0,3.5,mediterranean,ny
The Falafel Stand on the Corner of Front,40.7093811035156,-74.0029754638672,1.0,5.0,mediterranean,ny
Grill 44,40.75214,-73.97394,16.0,3.0,mediterranean,ny
J II Kosher Pizzeria & Ristorante,40.61783,-73.9602,9.0,3.5,mediterranean,ny
Moe's Falafel,40.7522877,-73.9897059,3.0,1.5,mediterranean,ny
Joon Crispy Rice,40.754716385848,-73.9867562055588,3.0,3.5,mediterranean,ny
1 Bite Mediterranean,40.75938,-73.962486,18.0,3.0,mediterranean,ny
Midtown Grill,40.7339976520599,-74.0592405572534,67.0,3.5,mediterranean,ny
DeliPlus,40.75558,-73.98014,12.0,3.5,mediterranean,ny
Falafel,40.7069206,-74.0142212,2.0,3.0,mediterranean,ny
Wrapido,40.74412,-73.9953,1.0,4.0,mediterranean,ny
Pita Grill,40.7307091,-73.986557,13.0,2.5,mediterranean,ny
MTerranean,40.739178,-74.007027,8.0,2.0,mediterranean,ny
Halal Cart,40.6215659310321,-74.0259527140659,6.0,4.0,mediterranean,ny
Sahara Grill & Pita Truck,40.719129,-74.0421203,36.0,3.5,mediterranean,ny
Chorsu Restaurant,40.6045074462891,-73.9727783203125,6.0,3.5,mediterranean,ny
Cafe Nana,40.7999210787734,-73.9683099836111,7.0,3.5,mediterranean,ny
Mix Platter Halal Boys,40.79151,-74.05698,40.0,3.0,mediterranean,ny
Original Pizza & Grill,40.7256416,-73.9515314,5.0,2.5,mediterranean,ny
Civediamo Beyoglu,40.77431,-73.94933,1.0,1.0,mediterranean,ny
Bellini Pizza & Mediterranean,40.78317,-73.95102,4.0,2.5,mediterranean,ny
Ora Restaurant,40.738244,-73.988867,1.0,2.0,mediterranean,ny
Gazala's,40.78458,-73.97706,1.0,2.0,mediterranean,ny
Famous Gyro & Pizza,40.722925,-74.091733,19.0,2.5,mediterranean,ny
