Name,Latitude,Longitude,Votes,Rating,Type
Jajaja,40.7141530317142,-73.9904247969389,853,4.5,mexican
Jajaja,40.72979,-74.00455,70,4.5,mexican
Los Tacos No.1,40.7425547,-74.0060838,2858,4.5,mexican
Breakroom,40.7166907225542,-73.9999440120647,1568,4.5,mexican
La Contenta,40.71873,-73.98691,719,4.5,mexican
Los Tacos No.1,40.7575067,-73.9877717,1581,4.5,mexican
Toloache 50,40.762325,-73.9855741,1899,4.0,mexican
Miti Miti,40.6786672454389,-73.9791200818081,896,4.0,mexican
Cafe Habana,40.722998,-73.994171,3134,4.0,mexican
Casa Enrique,40.743404338358,-73.954350367693,1144,4.0,mexican
Rosie's,40.72492,-73.99079,683,4.0,mexican
Oxomoco,40.7299099,-73.95548,256,4.0,mexican
Flip Sigi,40.73405,-74.00642,678,4.0,mexican
Taco Dumbo,40.700601,-73.988467,181,4.0,mexican
Los Mariscos,40.74207,-74.00565,541,4.5,mexican
Vida Verde,40.7650089,-73.983215,1066,4.5,mexican
Mexicue,40.7434728927194,-73.9880464381069,437,4.0,mexican
Leyenda,40.68431,-73.99197,212,4.0,mexican
Barrio Chino,40.718022,-73.990026,1097,4.0,mexican
The Maze,40.747846,-73.9872499,414,4.0,mexican
Tacuba Hell's Kitchen,40.76545,-73.98729,632,4.0,mexican
Las Santas,40.6882,-73.97953,22,5.0,mexican
BarBacon Hell's Kitchen,40.766253,-73.986674,1174,4.0,mexican
Chela Modern Mexican,40.67032,-73.98569,391,4.5,mexican
Claro,40.6773587963142,-73.9861984489446,159,4.0,mexican
Don Chingon,40.6810431221494,-73.9752403260395,334,4.5,mexican
Calaca,40.6834,-73.95655,172,4.5,mexican
Toro Loco,40.70421,-74.01208,201,4.0,mexican
Mamasita Bar & Grill,40.76733,-73.98945,986,4.0,mexican
Anejo Tribeca,40.7193829,-74.004417,353,4.0,mexican
Bar Verde,40.7260849061034,-73.9897361397743,219,4.5,mexican
La Contenta Oeste,40.7352,-73.99808,194,4.0,mexican
Kahlo,40.75218,-74.0026,84,4.5,mexican
Chavela's,40.67347,-73.95711,1037,4.0,mexican
Taco Mahal,40.732337,-74.003303,528,4.5,mexican
El Camion,40.7291,-73.98105,678,4.0,mexican
Bar Bolinas,40.693499,-73.967389,119,4.0,mexican
Xixa,40.7104,-73.95854,567,4.5,mexican
Maya,40.7632055528185,-73.9596225112209,901,3.5,mexican
The Taco Shop,40.7319488525391,-74.0015411376953,355,3.5,mexican
Taqueria Tepango,40.6937857,-73.9616331,213,4.0,mexican
Mexicue,40.74202,-74.00046,358,4.0,mexican
Fonda East Village,40.722852,-73.98286,750,4.0,mexican
Eastpoint,40.72228,-73.98311,42,4.5,mexican
Calexico - Upper East Side,40.77259,-73.95588,647,4.0,mexican
The Bear,40.7128339,-73.9663587,30,4.5,mexican
La Loteria,40.7307865530978,-74.0041882564488,313,4.0,mexican
Ofrenda,40.73391,-74.00242,953,4.0,mexican
The Lost Lady,40.72631,-73.97756,77,4.0,mexican
Dos Toros Taqueria,40.7336815475083,-73.9897049423153,1312,4.0,mexican
Mesa Coyoacan,40.715528,-73.944273,750,4.0,mexican
Purepecha,40.684508,-73.9917,14,4.0,mexican
Rocco's Tacos & Tequila Bar,40.69319596606,-73.9885798943981,1282,3.5,mexican
Tacos El Bronco,40.65006,-74.00915,556,4.0,mexican
Taco Dumbo,40.7604532,-73.9775139,262,4.0,mexican
Hell's Kitchen,40.7638823425707,-73.9884334000586,396,4.0,mexican
Gueros,40.67521,-73.95657,583,4.0,mexican
Nacho Macho Taco,40.680609,-73.977808,161,4.5,mexican
Alta Calidad,40.68011,-73.96818,182,4.0,mexican
Cantina Rooftop,40.765101,-73.996046,649,3.0,mexican
Fonda Park Slope,40.663631439209,-73.9846343994141,787,4.0,mexican
Tortilleria Mexicana Los Hermanos,40.7066299,-73.92198,706,4.0,mexican
De Mole,40.71377,-73.95786,92,4.5,mexican
Donna,40.71093,-73.96772,172,4.0,mexican
Los Tacos No. 1,40.714282,-74.008675,61,4.5,mexican
Coney Shack,40.75659,-73.98589,290,4.5,mexican
Playa Betty's,40.78075,-73.98032,726,3.5,mexican
La Slowteria,40.675054752231,-73.9995680865082,243,4.0,mexican
La Esquina - SoHo,40.721372,-73.997529,2017,3.5,mexican
Empellón,40.75971,-73.97473,343,4.0,mexican
Gran Electrica,40.7027,-73.99314,466,3.5,mexican
Cemitas El Tigre,40.7391913,-73.9198491,210,4.5,mexican
El Diablito Taqueria,40.72504,-73.98917,350,4.0,mexican
Los Tacos-Mcondo,40.7108323440285,-73.9509542539666,287,4.0,mexican
Dorado Tacos,40.733963,-73.993172,623,4.0,mexican
Amaranto Mexican Restaurant,40.703111,-73.921892,334,4.5,mexican
Street Taco,40.74097,-73.98202,333,4.0,mexican
Grand Canyon Restaurant,40.69473,-73.99361,58,4.5,mexican
The Burrito Box,40.76831,-73.98565,857,4.0,mexican
The Black Ant,40.72578,-73.98952,524,4.0,mexican
Rosa Mexicano,40.77118,-73.98311,1169,3.5,mexican
The Calaveras,40.79956,-73.96241,103,4.5,mexican
Kimchi Grill,40.6750885,-73.9634982,560,4.0,mexican
Mad Dog & Beans Mexican Cantina,40.75098,-73.98181,408,4.0,mexican
Jolie Cantina,40.683532,-73.992288,405,4.0,mexican
Fatty Daddy Taco,40.686578,-73.990821,148,4.0,mexican
Calexico - East Village,40.72732,-73.98883,22,4.0,mexican
Taqueria El Patron Mexican Grill,40.6609280639479,-73.9614267185271,180,3.5,mexican
Fresco's Cantina,40.76837,-73.93303,209,4.5,mexican
Paloma's,40.7034683227539,-73.9121246337891,144,4.0,mexican
Otto's Tacos,40.7291289539586,-73.9875403,746,4.0,mexican
Los Tacos No.1,40.71424,-74.00869,23,4.5,mexican
Guadalupe Inn,40.70771,-73.93182,171,4.0,mexican
Mexicue,40.754412,-73.986511,491,4.0,mexican
Alma Restaurant,40.68557,-74.00215,484,3.5,mexican
Chilo's,40.68837,-73.95684,212,4.0,mexican
El Vez Burrito Bar,40.7147356376792,-74.015635,128,4.0,mexican
Flats Fix Taqueria,40.73659,-73.99115,174,4.0,mexican
Tac N Roll,40.7252676,-73.9877743,182,4.5,mexican
Casa Taqueria,40.70875,-74.00583,50,4.0,mexican
Pinks Cantina,40.72229,-73.99189,7,5.0,mexican
Villa Cemita,40.72383,-73.98478,334,4.0,mexican
El Vez,40.7147356376792,-74.015635,641,3.5,mexican
Tacocina,40.715238,-73.967644,99,3.5,mexican
Barnacho,40.7540321350098,-73.9688491821289,196,4.0,mexican
Taqueria Diana,40.7284337609976,-73.9879844318771,721,4.0,mexican
Mayamezcal,40.72711,-73.98817,604,4.0,mexican
Taqueria Milear,40.6729835327648,-73.9503121359905,190,4.5,mexican
Taqueria Gramercy,40.7363,-73.98531,70,4.0,mexican
Taco Vista,40.692755886949,-74.0145479142666,33,4.0,mexican
Essex Taqueria,40.7197418,-73.9877989,260,4.0,mexican
Taqueria Kermes,40.70785,-73.89798,387,4.0,mexican
Guac & Jazzo,40.72764,-73.9792,167,3.5,mexican
Toloache Thompson,40.7286749,-73.9996277,435,3.5,mexican
La Esquina - Midtown,40.7642986928764,-73.9814604957066,191,4.0,mexican
Alan's Kitchen Mexican Cuisine,40.7594264475,-73.9905066043,28,5.0,mexican
Swell Dive,40.689183858613,-73.9549609646201,87,4.0,mexican
Tacombi - Nolita,40.7240304,-73.9939028,1095,3.5,mexican
Mad Dog & Beans Mexican Cantina,40.704168,-74.010261,911,3.5,mexican
Taqueria St. Marks Place,40.7278587780221,-73.9856138085992,415,4.0,mexican
Rosa Mexicano,40.75895,-73.96268,527,3.5,mexican
Ho' Brah a taco joint,40.623006,-74.031548,771,4.0,mexican
Zona Rosa,40.7139388888686,-73.9494076703442,431,3.5,mexican
Nacho Macho Taco,40.6764068073189,-73.9627275318417,279,4.5,mexican
Cascalote Latin Bistro,40.79271,-73.94069,334,4.5,mexican
Casa Bocado,40.71958,-73.99484,22,3.5,mexican
Taqueria Santa Fe,40.740766,-73.917876,336,4.5,mexican
De Mole,40.7391932,-73.9202624,605,4.0,mexican
Corazon De Mexico Restaurant & Bar,40.74281,-73.95348,54,4.0,mexican
Lolita's Kitchen,40.7824207446896,-73.9534502033954,87,4.0,mexican
Dos Caminos,40.7404330511257,-74.0054753422738,996,3.0,mexican
Toloache 82nd,40.77648,-73.95669,399,4.0,mexican
Dos Caminos,40.7593727,-73.9853281,557,3.5,mexican
Mexicocina Agaveria,40.6768850683622,-73.9636141061783,24,4.5,mexican
Tacos El Bronco,40.65237,-74.00274,127,4.5,mexican
Tacuba,40.75585,-73.92447,645,3.5,mexican
Friducha,40.73152,-73.95432,71,4.0,mexican
Tacovision,40.7568200311153,-73.9678929001093,44,4.5,mexican
Chihuahua,40.7425222545862,-73.9176765829325,138,4.5,mexican
Acapulco,40.7367,-73.95517,275,4.0,mexican
Pampano,40.75503,-73.97054,552,4.0,mexican
Emojo Burger,40.7323,-73.98224,137,4.0,mexican
Cantina Taqueria & Tequila Bar,40.8003063353508,-73.9549569049235,492,4.0,mexican
Bar Bruno,40.6833674,-73.9997959,247,4.0,mexican
Taco Morelos,40.71783,-73.95773,95,4.0,mexican
Dos Caminos,40.7266452,-73.9999024,1058,3.5,mexican
Mexicue,40.77536,-73.95628,159,4.0,mexican
Casa Azul,40.6655705744252,-73.9825450299114,39,4.0,mexican
La Superior,40.71357,-73.96363,571,3.5,mexican
Taco Playa,40.70737,-74.00269,68,3.5,mexican
Taco Dumbo,40.75275,-73.98756,82,4.0,mexican
Tepache,40.683368,-73.938289,326,3.5,mexican
Taco Edition,40.71177,-73.94134,75,4.0,mexican
Sonora,40.6824295855403,-73.9199669121657,151,3.5,mexican
Bushwick Taco,40.692,-73.90616,133,4.0,mexican
Habana To-Go,40.72292,-73.99418,267,4.0,mexican
Habanero Blues,40.75049,-73.98517,242,3.5,mexican
Cantina Cumbancha,40.71935,-73.95293,46,4.0,mexican
Tacos Matamoros,40.6478187840292,-74.0076383498633,574,3.5,mexican
La Loba Cantina,40.64569,-73.97283,104,4.0,mexican
El Cacto,40.73417,-73.99165,81,4.0,mexican
Rosa Mexicano,40.7141113543271,-74.0092619508505,188,3.0,mexican
Cantina 48,40.76497,-73.99607,5,4.5,mexican
Tacombi - Flatiron,40.742807,-73.991138,637,3.5,mexican
La Lupe,40.69725,-73.93517,164,3.5,mexican
Tacombi - Bleecker Street,40.73112,-74.00272,354,4.0,mexican
Tacombi - Williamsburg,40.71489,-73.95949,2,4.0,mexican
Otto's Tacos,40.73454,-74.00206,293,4.0,mexican
Otto's Tacos,40.7625885009766,-73.9900054931641,351,4.0,mexican
Dos Caminos,40.7421567897168,-73.9845427163755,1165,3.5,mexican
El Mero Mero,40.753834323302,-73.923701159656,81,4.5,mexican
Lucky Cheng's,40.765076,-73.995986,86,3.5,mexican
El Parador Cafe,40.7444599,-73.97472,422,4.0,mexican
Virgin Mary Tacos,40.7400398,-73.9766541,6,5.0,mexican
Bar San Miguel,40.68134,-73.9938279,134,4.0,mexican
Sinigual,40.7503161990978,-73.9750733399726,829,3.5,mexican
Cosme,40.739691,-73.988428,997,3.5,mexican
Zaragoza Mexican Deli & Grocery,40.730102,-73.980949,297,4.0,mexican
The Little Taco House,40.73475,-74.00321,39,4.5,mexican
Luchadores,40.70582,-74.00411,66,3.5,mexican
Atla,40.7271874,-73.9938924,274,3.5,mexican
Javelina,40.7368812561035,-73.9873886108398,449,3.5,mexican
Lupita's Restaurant,40.790205,-73.943136,120,4.0,mexican
El Kallejon,40.798538,-73.938805,277,4.5,mexican
Conmigo,40.77793,-73.94902,193,4.0,mexican
Tacos Cholula,40.72301,-73.98605,148,4.0,mexican
Anejo,40.762577,-73.992919,662,3.5,mexican
Factory Tamal,40.7159893975333,-73.9903887679246,84,4.5,mexican
Tortaria,40.73387,-73.99304,684,3.5,mexican
Blue Maiz,40.75543,-73.99071,241,4.0,mexican
Calexico - Park Slope,40.674283,-73.982278,423,3.5,mexican
Burrito Bar,40.678342,-73.9730639,698,3.0,mexican
La Chula,40.79882,-73.94168,164,4.0,mexican
Casa Publica,40.718194,-73.9520543,103,4.0,mexican
Blockheads,40.73123,-73.98905,224,3.5,mexican
El Centro,40.76602,-73.98688,837,4.0,mexican
Tacombi - Fort Greene,40.68699,-73.9779,131,3.5,mexican
La Loncheria,40.702921,-73.929105,56,4.5,mexican
Tacombi - Empire State Building,40.748375,-73.9864908,163,4.0,mexican
Taco Mix,40.797098,-73.938785,366,4.0,mexican
Borrachito,40.7295,-73.98084,19,4.0,mexican
Réunion,40.75964943513,-73.991308284398,684,4.0,mexican
Blockheads,40.7551,-73.96802,451,3.5,mexican
Mexico 2000 Restaurant,40.70765,-73.95493,127,4.0,mexican
Jimbo Slims,40.7209450363619,-73.9465168238625,34,5.0,mexican
Los Tacos Al Pastor,40.70254,-73.98736,44,3.0,mexican
Temerario,40.7434133400872,-73.9996277220286,255,4.0,mexican
GMC Temaxcal Deli & Grocery,40.696418,-73.972984,48,4.5,mexican
Chela & Garnacha,40.7557171543477,-73.927811292412,365,4.5,mexican
Cena Brooklyn,40.6514621241404,-73.9757554605603,49,4.0,mexican
Lupe's,40.72369,-74.0045776,380,3.5,mexican
Café Frida,40.7808959,-73.9764829,655,3.5,mexican
El Santo Taqueria,40.70427,-73.9302,17,4.5,mexican
Buddy's Burrito & Taco Bar,40.685341,-73.994661,159,4.0,mexican
Rosarito Fish Shack,40.7195575,-73.9607528,531,3.0,mexican
Las Catrinas Mexican Bar & Eatery,40.7614214682633,-73.9246649456171,301,4.0,mexican
Las Margaritas Sunset,40.7176805498912,-73.9449793863278,40,4.0,mexican
Calexico - Greenpoint,40.72416,-73.95132,692,3.5,mexican
El Nopal Restaurant & Juice Bar,40.663129,-73.9912745,108,4.0,mexican
Burrito Republic,40.7006779324274,-73.8991589471698,86,4.0,mexican
Cafe Ollin,40.7912288,-73.9395386,380,4.5,mexican
Tacos Grand Central,40.75164,-73.97418,195,4.0,mexican
Takumi Taco,40.751606,-74.00652,38,4.0,mexican
Taqueria Santa Fe,40.700351,-73.920546,90,4.5,mexican
Empellón Al Pastor Murray Hill,40.74931,-73.97664,57,3.5,mexican
Oaxaca Taqueria,40.7841453552246,-73.9778137207031,384,3.5,mexican
Downtown Bakery Cocina Mexicana,40.72543,-73.98711,249,4.0,mexican
Guadalajara De Dia 2,40.7044639587402,-73.9109420776367,86,4.0,mexican
Calabrije's Margaritas & Tacos,40.7055429619569,-73.9225539192783,83,4.0,mexican
Antojitos El Atoradero,40.6787553,-73.982814,2,5.0,mexican
Beefrria Landia,40.747258,-73.887784,17,5.0,mexican
Chinantla,40.69464,-73.95747,108,4.0,mexican
Fonda Chelsea,40.7455185879981,-74.0021848849335,329,3.5,mexican
Blockheads,40.7627155294445,-73.9876316100625,766,3.5,mexican
San Pedro Inn,40.67908,-74.01106,17,4.0,mexican
Two Lizards Mexican Bar & Grill,40.768857,-73.955524,462,3.5,mexican
Tacombi - Upper West Side,40.78251,-73.97856,80,4.0,mexican
Ghost Donkey,40.72524,-73.99271,140,3.5,mexican
Hoja Santa,40.7638197,-73.914523,33,4.5,mexican
Taco Dumbo,40.75811,-73.9831455,33,4.0,mexican
Taco Dumbo,40.72206,-73.99674,31,3.5,mexican
Dos Toros Taqueria,40.706940531234,-74.0068830175517,107,3.5,mexican
Taqueria Mexico 2000,40.71509,-73.96246,9,4.0,mexican
Dos Toros Taqueria,40.6920649351928,-73.9914631471038,90,3.5,mexican
The Breakers,40.717535,-73.948872,42,3.5,mexican
Twisted Mexican Grill,40.772422,-73.9264379,44,4.5,mexican
Viva Toro,40.7166,-73.96136,489,3.0,mexican
Mesa Azteca,40.70506,-73.92022,239,4.0,mexican
B'klyn Burro,40.6827188,-73.9640973,99,4.0,mexican
Court Street Grocers Lunch,40.71385,-73.95554,24,4.5,mexican
El Kucho Mexican Restaurant,40.70073,-73.92551,187,4.0,mexican
Bodega Negra,40.7421414364183,-74.0035781860352,653,3.5,mexican
Antojito Mexicano,40.7460380678347,-73.9905191880082,37,4.5,mexican
Burritos y Mas NY Tex-Mex,40.7887686998247,-73.9486259859039,152,4.0,mexican
Les Crêpes & Taqueria,40.7154425095498,-73.9899829811096,82,4.0,mexican
Laly's Restaurant,40.747207,-73.8897241,117,4.5,mexican
El Mitote,40.77578,-73.98021,477,3.5,mexican
Mexico Diner,40.6387,-73.96963,91,4.5,mexican
Revolution Taco & Tequila Bar,40.70437,-74.01039,9,3.5,mexican
Taqueria Coatzingo,40.7471912668812,-73.8895068500844,420,4.0,mexican
Burger One,40.7752780616283,-73.9587344974279,190,4.0,mexican
New Mexico Place,40.70851,-73.94356,189,3.5,mexican
Del Sur Cocina,40.70847,-73.93817,5,4.5,mexican
Taqueria Diana,40.71424,-73.95568,67,4.0,mexican
jajaja,40.71684,-73.96197,3,4.5,mexican
Ponche Taqueria & Cantina,40.76319,-73.99045,490,4.0,mexican
Javelina,40.7694,-73.95816,86,3.5,mexican
Cantina Royal,40.7175416270346,-73.9634865865082,241,3.5,mexican
The Garret Nolita,40.719724744789,-73.9950288411429,10,4.0,mexican
Otto's Tacos,40.7802999,-73.95312,169,4.0,mexican
Domo Taco,40.673587499494,-73.9567834196103,185,3.5,mexican
Mi Tierra Restaurant,40.6751313899333,-73.9601259960482,36,4.0,mexican
The Deep End,40.6944210364308,-73.9022258678353,32,4.5,mexican
Fatty Daddy Taco,40.669172,-73.986665,353,4.0,mexican
Tacos Times Square,40.7417320336149,-73.9823354903991,108,4.0,mexican
Habanero Cafe Mexican Grill,40.70058,-73.94408,57,3.5,mexican
Empellón Taqueria,40.7341219,-74.0030294,697,3.5,mexican
Casa Mezcal,40.7179602,-73.9902328,392,3.5,mexican
Citrico,40.6768903036116,-73.9635266537943,207,4.0,mexican
Juquila Kitchen and Bar,40.7532,-73.93436,98,4.0,mexican
Fast and Fresh Burrito Deli,40.68806,-73.98694,177,4.0,mexican
Blue Agave,40.6330902,-74.0268565,227,4.0,mexican
Taquitos Mexico,40.6230108591414,-74.0011579838332,200,4.0,mexican
Gonzalez y Gonzalez,40.7261303289736,-73.9972339217213,459,3.5,mexican
Pulqueria,40.71448,-73.99819,477,3.5,mexican
Flats Fix,40.74073,-73.98839,109,4.0,mexican
Vamos Al Tequila,40.73079,-73.95753,283,3.5,mexican
Homemade Taqueria,40.7546939084048,-73.9165629007979,337,4.0,mexican
Azumma,40.71897,-74.00102,15,4.0,mexican
Oaxaca Taqueria,40.68634,-73.954767,162,3.5,mexican
Taco Dumbo,40.750297,-73.991708,98,4.0,mexican
Papatzul,40.722148,-74.003677,415,3.5,mexican
Taqueria Downtown,40.7162,-74.04451,1698,4.0,mexican
Tacos Times Square,40.76253,-73.97671,104,4.0,mexican
Pequena,40.6868452,-73.9747352,324,3.5,mexican
Tacos Los Poblanos,40.643196,-74.012781,37,4.5,mexican
Fajitas Sunrise,40.7002830505371,-73.8988723754883,155,3.5,mexican
Restaurant  Taqueria El Maguey,40.652107,-74.006272,33,4.5,mexican
Taco Santana,40.7079186820012,-73.9554587596491,149,4.0,mexican
Pedro's Mexican Bar & Restaurant,40.702526,-73.98647,482,2.5,mexican
The King Of Taco,40.7601063,-73.8779181,131,4.0,mexican
Noche De Margaritas,40.7801018,-73.9497833,347,4.0,mexican
Leslie's Kitchen,40.70136,-73.92663,33,4.5,mexican
Los Portales,40.7631768211379,-73.9282260153443,259,4.0,mexican
Hotel Tortuga,40.73239,-73.98545,498,3.5,mexican
Mojave,40.7753290076368,-73.9119911693115,709,3.5,mexican
Dos Toros,40.70253,-74.01333,17,3.5,mexican
Tacos Lokos 4ever,40.711607,-73.946425,25,4.0,mexican
Don Panchito,40.7154074225537,-73.9603268362965,49,4.0,mexican
Great Burrito,40.7428322,-73.9930115,242,4.0,mexican
Carniceria,40.7100952311239,-73.9520365428969,2,5.0,mexican
QDOBA Mexican Eats,40.6986599,-73.91835,35,4.0,mexican
Hungry Burrito,40.72164,-73.93835,15,4.0,mexican
El Rio Grande,40.748074661455,-73.976690081965,615,3.5,mexican
Reyes Deli & Grocery,40.66731,-73.99162,211,4.5,mexican
The Great Burrito,40.78333,-73.97796,276,4.0,mexican
Taqueria Maria and Ricardo,40.63906,-73.96926,66,4.5,mexican
Los Tacos City Habanero,40.7440144504923,-73.9537688118532,29,4.5,mexican
The Burrito Spot - Brooklyn,40.67473,-73.99802,22,4.0,mexican
Oaxaca Taqueria,40.7601356506348,-73.992057800293,105,4.0,mexican
Taqueria Sofia,40.7000869,-73.9257427,113,4.0,mexican
Benny's Burritos,40.7380740387279,-74.002123778491,754,3.5,mexican
The Brothers Cafe,40.74607,-73.924109,94,4.5,mexican
Taqueria Santa Fe,40.76319,-73.87492,119,4.0,mexican
‘ritas,40.7633331939511,-73.9887996051015,20,4.0,mexican
Cilantro,40.784629,-73.973121,423,3.5,mexican
BK Taco Factory,40.699987,-73.921334,13,4.5,mexican
Don Pancho Villa Restaurant,40.7109108,-73.9528503,223,4.0,mexican
Las Margaritas,40.6333399,-74.02719,210,4.0,mexican
Castro's Restaurant,40.6938559,-73.964426,268,3.5,mexican
La Flor,40.74434,-73.91141,232,4.0,mexican
Dos Toros Taqueria,40.73062,-74.0023,284,3.5,mexican
La Flaca,40.7165,-73.98763,343,3.5,mexican
El Tenampa,40.662425336259,-73.9963044612931,85,4.5,mexican
Taqueria El Gallo Azteca,40.63842,-74.07867,111,4.5,mexican
Evelia’s Tamales,40.7493562,-73.8691189,7,5.0,mexican
Oaxaca Taqueria,40.7453117370605,-73.9795227050781,120,3.5,mexican
Evodio's Place,40.6913531760712,-73.9687436216104,3,4.5,mexican
Skinny's Cantina,40.7457158661738,-73.9563131306885,463,3.0,mexican
Maya Fusion Cafe,40.68601,-73.9116,30,4.5,mexican
ERT - El Rico Tinto Restaurant,40.7546065,-73.8930553,31,5.0,mexican
Mole,40.73822,-74.00524,428,3.5,mexican
Taco Bar,40.727023,-73.9918770865082,67,3.5,mexican
West End Taqueria,40.795549,-73.973394,43,4.5,mexican
Lucy's Cantina Royale,40.751757506263,-73.9928958215327,686,2.5,mexican
El Tepeyac Mexican Food,40.789737,-73.94786,25,4.5,mexican
Los Tres Chiflados,40.645497,-73.958364,88,4.0,mexican
Jalapeno King,40.660274,-73.994125,77,4.0,mexican
Tijuana Picnic,40.7207634,-73.9873657,302,3.0,mexican
Dos Toros Taqueria,40.75352,-73.97418,174,3.5,mexican
El Toro Blanco,40.72902,-74.00277,392,3.5,mexican
Lobo Loco,40.6235482129985,-74.0310907468305,282,3.0,mexican
Malinche Mexican Restaurant,40.663583,-73.951128,7,4.5,mexican
Papi's Grill,40.67212,-73.97704,82,4.0,mexican
Calexico - Union Street,40.684151,-74.0025404,253,3.5,mexican
Taqueria Meza,40.7330017,-74.002915,294,3.5,mexican
Guacamole Mexican Restaurant,40.79515,-73.9698,140,3.5,mexican
Casa Mexicana,40.7989892,-73.966955,189,4.0,mexican
Taqueria La Placita Puebla,40.699081,-73.93946,50,4.0,mexican
Móle,40.718819,-73.963455,284,3.0,mexican
Mezquite Restaurant,40.76167,-73.9109,257,4.0,mexican
La Gringa Bar and Grill,40.723475,-73.868923,220,4.0,mexican
Don Pepe Tortas & Jugos,40.651194,-74.004387,89,4.0,mexican
Homemade Taqueria,40.7279658,-73.8921686,275,4.0,mexican
Taqueria Diana,40.75652,-73.99371,200,3.5,mexican
Maria's Bistro Mexicano,40.651542,-74.003982,245,3.5,mexican
Vote For Pedro Tequila & Tacos,40.75725,-73.96808,90,4.0,mexican
Juquila Mexican Cuisine,40.74727,-73.88318,161,4.0,mexican
Fusion HK Bar and Grill,40.76347,-73.99231,107,4.0,mexican
Mariachi's,40.715751,-74.010219,233,3.5,mexican
Cascabel Taqueria,40.7743636,-73.9539916,395,3.5,mexican
Oaxaca Taqueria,40.688233,-73.986593,83,3.0,mexican
Common Ground,40.7395,-74.00726,103,3.0,mexican
Cielito Lindo Bistro,40.6745053,-73.9498836,12,4.0,mexican
Nacho Macho Taco,40.69646,-73.91388,28,4.5,mexican
El Paso Taqueria,40.787296295166,-73.9528121948242,218,3.0,mexican
The Haab,40.740273,-73.917675,177,4.0,mexican
Canyon Road Grill,40.770694,-73.953774,236,3.5,mexican
Howlin' Taco,40.695,-73.90433,6,4.5,mexican
Cinco de Mayo Restaurant,40.639881,-73.96688,209,4.0,mexican
Xochitl Taqueria,40.6823211397652,-73.9608860896543,148,3.5,mexican
El Aguila,40.790573,-73.947715,190,4.0,mexican
Maizal Restaurant & Tequila Bar,40.759331,-73.926035,295,4.0,mexican
Adobe Blues,40.643234,-74.095314,269,4.0,mexican
El Burrito Nacho,40.68465,-73.91406,54,4.0,mexican
Elora's Mexican and Spanish Food,40.6584854125977,-73.9823989868164,212,3.5,mexican
Jalapeños,40.6408689715014,-74.0147714348883,41,4.0,mexican
Oaxaca Taqueria,40.7054473656225,-74.0083641817509,75,3.0,mexican
Tacos El Dorado,40.6542699,-73.95942,19,4.5,mexican
Sidewalk Tacos,40.7284088,-73.9996719,29,4.0,mexican
Arriba Arriba Midtown,40.7641288111074,-73.9882850646973,874,3.5,mexican
Tacos Y Jugos Genesis,40.7435971734647,-73.8868284970522,119,4.0,mexican
La Esquina Del Camaron Mexicano,40.74721,-73.88557,37,4.5,mexican
Mallenche Mexican Grill,40.64911,-73.96427,89,4.0,mexican
Mi Espiguita Taqueria,40.7612033639422,-73.9261436462402,113,4.5,mexican
Dos Toros Taqueria,40.7607084122727,-73.9784675091505,80,4.0,mexican
Made In Mexico Harlem,40.7940072130959,-73.9402346313,105,3.5,mexican
El Diablo Taco Truck,40.7156147733261,-73.9521074295044,69,4.0,mexican
Blockheads,40.79024,-73.97274,244,3.5,mexican
Mexico Lindo Restaurant,40.73981,-73.97984,244,3.5,mexican
Baby Bo's Cantina,40.74514,-73.97598,609,3.5,mexican
Dos Toros Taqueria,40.7175893,-73.9579096,145,3.5,mexican
Puebla,40.717988,-73.988314,22,3.5,mexican
Rancho Tequileria,40.763717,-73.989189,273,3.5,mexican
Gina Mexicana,40.763456,-73.966753,147,3.0,mexican
Pablito's Taqueria,40.660156,-73.994186,55,4.0,mexican
El Cantinero,40.73364,-73.99324,534,3.0,mexican
Tacoria,40.721858,-74.044181,116,4.5,mexican
Abuela Antonia Mexican Restaurant,40.67499,-73.91091,6,4.5,mexican
Border Burrito,40.71403,-73.96147,24,4.0,mexican
Dos Toros Taqueria,40.739847,-73.986326,134,3.5,mexican
El Centro Cantina,40.76593,-73.98675,42,4.0,mexican
Las Margaritas Restaurant & Bar,40.70541,-73.89673,58,4.0,mexican
The Whiskey Annex,40.721141,-73.956733,9,4.0,mexican
Nuevo Mexico Bar & Restaurant,40.667476,-73.987365,243,3.5,mexican
Tajin,40.70772,-74.01356,228,3.5,mexican
Dos Toros Taqueria,40.75468,-73.99214,63,3.5,mexican
Taco Bandito,40.7474763497109,-73.9971551748688,201,3.5,mexican
Haab,40.71099,-73.94707,182,3.5,mexican
Las Delicias Mexicanas,40.79735,-73.94009,63,4.0,mexican
Quesadillas Doña Maty,40.7972183,-73.9390182,46,4.0,mexican
St James Deli,40.75843584113,-73.9247259526577,86,4.5,mexican
La Mesita Restaurant,40.6992569,-73.9152222,79,4.0,mexican
Uno Mas,40.75966,-73.94356,3,4.5,mexican
Orale Mexican Kitchen,40.720536,-74.042976,1054,4.0,mexican
La Palapa,40.727969,-73.985604,683,3.5,mexican
San Loco,40.7210575087845,-73.987348174211,258,3.5,mexican
Tamale Lady,40.750843,-73.9801865,3,4.5,mexican
Bushwick Pita Palace,40.70753,-73.93965,200,3.5,mexican
Oaxaca Taqueria,40.683345,-73.934967,85,3.5,mexican
Maya Taqueria,40.67796,-73.9685499,371,3.5,mexican
Al Horno Lean Mexican Kitchen,40.75967,-73.96525,120,3.5,mexican
Taco Electrico,40.736544,-73.988442,82,3.5,mexican
Las Panteras Negras,40.79279,-73.9405,30,4.5,mexican
Taco Bell,40.7627823419428,-73.9855951851852,41,3.5,mexican
Taqueria La Nortena,40.72474,-73.95121,114,3.5,mexican
Al Horno Lean Mexican Kitchen,40.7045938074589,-74.0092887729406,58,3.0,mexican
Don Burrito,40.63548,-73.96271,99,3.5,mexican
Mexico 2000 Grocery,40.707683,-73.955017,68,4.0,mexican
Caliente Cab,40.7318059,-74.0035903,792,2.5,mexican
Maizal Restaurant,40.61831,-74.06958,236,3.5,mexican
La Esquina - UES,40.7693131667402,-73.9577519273524,137,3.5,mexican
Villa Pancho Taqueria,40.6933447063192,-73.9664311287236,42,3.5,mexican
Panchitas Place,40.66062,-73.99397,69,4.0,mexican
Al Horno Lean Mexican Kitchen,40.61973,-74.03276,22,4.5,mexican
Taco Mix,40.7181,-73.98592,22,3.5,mexican
Oaxaca Taqueria,40.6766700744629,-73.9839782714844,311,3.5,mexican
Los Pollitos III,40.69366,-73.96517,149,2.5,mexican
Iguana Restaurant & Dance Lounge,40.7642063,-73.9832105,835,3.0,mexican
Margarita Bar NYC,40.759132,-73.9886919,35,3.5,mexican
Rancho Alegre,40.672208,-73.97698,111,3.5,mexican
Tacos Grand Central,40.7476230390695,-73.9740906903076,24,4.0,mexican
Breakfast Burritos El Donkey,40.7421586,-74.0047099,23,4.5,mexican
Mi Otra Casa Restaurant,40.743265,-73.874115,27,4.0,mexican
Mama Lupita's Bistro,40.655989,-74.003119,17,5.0,mexican
Maya Taqueria,40.67763,-73.9798,53,4.0,mexican
Taqueria Y Fonda,40.8016168,-73.965212,491,3.5,mexican
Dos Toros Taqueria,40.7739509,-73.9594762,370,3.5,mexican
Panchos,40.8015,-73.96534,63,4.0,mexican
Fatty Daddy Taco,40.62958,-74.02873,30,4.0,mexican
107 West Restaurant,40.8026581,-73.9680786,94,3.5,mexican
Cerveceria Havemeyer,40.7116974,-73.9574585,124,3.5,mexican
Ricos Tacos,40.64453,-74.01066,177,3.5,mexican
Santa Fe,40.7767077615034,-73.9789559105304,167,3.5,mexican
Coszcal De Allende,40.63617,-74.0262,127,4.0,mexican
Cascabel Taqueria,40.8029136693265,-73.9679586979658,405,3.5,mexican
De Mole Astoria,40.7625999,-73.9129028,362,4.0,mexican
Tacos y quesadillas,40.77993,-73.95546,16,4.5,mexican
Takumi Taco,40.7423295448078,-74.0061442013275,219,3.5,mexican
Morelos Authentic Mexican Cuisine,40.67185,-73.97898,20,4.5,mexican
Moe's Southwest Grill,40.7527917,-73.9859157,123,3.5,mexican
Charrito's Restaurant,40.77707,-74.0136,606,3.0,mexican
Manjares Mexico,40.7572483,-73.9155682,13,4.0,mexican
Cancun,40.76578,-73.98379,363,3.0,mexican
El Alto  Deli Mexican Food,40.7131291,-73.9053307,11,4.5,mexican
Tacos El Dorado,40.6476,-73.95846,44,4.5,mexican
Oaxaca Taqueria,40.7631132993777,-73.9591559395194,85,3.5,mexican
El Mariachi Restaurant,40.7460442,-73.8978364,46,4.0,mexican
Empellón Al Pastor East Village,40.72668,-73.98336,249,3.5,mexican
DORADO Tacos & Quesadillas,40.75686,-73.97228,22,3.5,mexican
Taco Chulo,40.712542,-73.956488,410,3.5,mexican
El Cantante,40.73019,-74.00762,1,4.0,mexican
Mole,40.780331,-73.950302,364,3.0,mexican
Athens Grill & Sports Bar,40.7671808396101,-73.9218648523092,191,4.0,mexican
Side Park Cafe,40.7931,-73.95137,32,4.0,mexican
El Sombrero,40.72124,-73.9875,339,3.5,mexican
Gitano NYC,40.7228510741812,-74.0062101896931,202,3.0,mexican
Taqueria El Puente,40.61667,-74.03052,109,4.0,mexican
Warude,40.6846262,-73.9440354,62,3.5,mexican
El Rey Del Taco Truck,40.76622,-73.91933,474,4.5,mexican
Taco Cafe 11-11,40.70758,-73.9558796,6,4.5,mexican
Patron Mexican Grill,40.75923,-73.99173,422,3.0,mexican
Tito Murphy's,40.76034,-73.989743,10,4.0,mexican
Tacos Lopez,40.622853,-74.028478,48,4.5,mexican
Aztec Soul,40.68141578367,-73.8719404061003,75,3.5,mexican
Mi Mariachi Taqueria,40.73156,-74.06974,266,4.5,mexican
Big D's Grub Truck,40.703099,-73.9866598,1,4.0,mexican
Catrinas Mexican Grill,40.63248,-74.02767,106,3.5,mexican
Azteca Restaurant,40.743449,-73.9237466,7,4.5,mexican
Sidewalk Tacos,40.79409,-73.94026,69,4.5,mexican
El Rey del Taco Deli,40.744433,-73.915326,45,4.0,mexican
El Gallo Taqueria,40.6035151454871,-73.9779098353486,214,4.0,mexican
Dos Toros Taqueria,40.7413,-73.99359,55,3.5,mexican
Los Feliz,40.71938,-73.98882,455,3.0,mexican
Blue Agave Mexican Restaurant & Bar,40.6178877280414,-73.9990214085986,120,3.5,mexican
Mex 'N Roll,40.7174719202704,-73.9585864853214,18,4.5,mexican
Las Quesadillas,40.7481079,-73.8805389,8,5.0,mexican
La Placita Oaxaquena,40.69496,-73.9546,8,4.0,mexican
El Mexicano Restaurant and Cafe 2,40.67538,-74.00051,17,5.0,mexican
El Rinconcito Mix,40.67152,-73.95251,1,5.0,mexican
Hungry Burrito,40.7014612,-73.9051407,44,4.0,mexican
Cafe Los Arcos,40.7072619,-73.9395899,89,3.5,mexican
Guajillo,40.7967861606349,-73.934840150695,33,4.5,mexican
El Guacamole,40.74607,-73.89691,2,5.0,mexican
Don Patron Bar & Grill,40.64778,-73.96793,46,4.5,mexican
Al Horno Lean Mexican Kitchen,40.72504,-73.98739,37,3.0,mexican
Al Horno Lean Mexican Kitchen,40.74004,-73.98453,86,3.0,mexican
Tulcingo Del Valle,40.762756,-73.993545,264,3.5,mexican
"Tacos, Twins and Trains Taco Cart",40.7056431,-73.9333922,15,4.5,mexican
Vera Cruz,40.717292,-73.957939,228,3.5,mexican
Taqueria El Fogon,40.7044101,-73.9291005,157,3.5,mexican
Taqueria Cocoyoc,40.702385,-73.915728,117,3.5,mexican
Mexikosher,40.78458,-73.97393,74,3.5,mexican
The Creek & The Cave,40.7432511476929,-73.9517892774468,364,3.5,mexican
Taco Dumbo @ Rose Mansion,40.7488694,-73.989203,1,5.0,mexican
Orale Tacos,40.7689108,-73.9256464,44,4.0,mexican
Paquito's,40.728137,-73.985134,246,3.5,mexican
Amelia Grilled Burrito,40.7142741,-73.94591,12,4.0,mexican
Tacos el Chicken,40.642616,-73.978576,29,4.0,mexican
Tacos Y Quesadillas Mexico,40.7686908,-73.9849574,46,4.0,mexican
Arepitas,40.7297209600858,-73.9902131916715,5,4.5,mexican
Los Mariachis Restaurant,40.637732,-73.968047,108,3.5,mexican
Viva Viva Taqueria,40.7654487,-73.9187253,2,5.0,mexican
Tortas Neza,40.74938,-73.86879,90,4.5,mexican
Tacos Al Suadero,40.7482863,-73.879015,144,3.5,mexican
Oxido,40.7547219061481,-73.9862432694773,33,3.5,mexican
El Ranchito Poblano,40.6382316,-73.9536798,105,3.0,mexican
Regalo De Juquila,40.69748,-73.93168,111,3.0,mexican
Lime Jungle Empanadas,40.743201852814,-73.9966291921214,107,3.5,mexican
L Encanto D Lola,40.8001464434346,-73.9511863565111,258,3.5,mexican
Mex Carrolls Diner,40.68556,-74.00276,31,4.0,mexican
Dos Toros Taqueria,40.7130865074113,-74.0160842315927,107,3.5,mexican
Tacos El Vagabundo,40.743566,-73.923362,91,4.5,mexican
No Fun,40.72145,-73.98789,319,3.0,mexican
Taqueria Madelin,40.699245,-73.915595,3,5.0,mexican
Coatzingo Restaurant,40.74759,-73.88623,50,4.0,mexican
El Mariachi Restaurant,40.7611304286653,-73.9233571500763,232,3.5,mexican
Tacos Cuautla Morelos,40.7274619080615,-73.9832050287211,117,3.5,mexican
Casa Coriz,40.700906,-73.894801,7,4.5,mexican
La Posada Mexican Food,40.74115,-73.98189,214,3.5,mexican
Chuy’s Cantina,40.7114816829,-73.9509772823,3,4.5,mexican
Pinks Cantina,40.72664,-73.99202,5,4.5,mexican
Hidalgo Mexican Food,40.7632870632524,-73.9415278658571,23,4.0,mexican
Tribeca Taco Truck,40.7163993595972,-74.0044404587666,1,5.0,mexican
Mexican Festival,40.79821,-73.96887,267,3.0,mexican
Taco Recipes,40.7152606869718,-73.9900060870141,34,3.5,mexican
La Chula NYC,40.752901,-73.9773022,75,3.5,mexican
Taco Veloz,40.747793,-73.87985,59,4.5,mexican
Cholula Deli,40.70095,-73.91416,12,4.5,mexican
Bistro Casa Azul,40.79659,-73.93229,21,5.0,mexican
Gueros,40.66873,-73.99035,13,3.5,mexican
The Boss of the Tacos,40.7563152,-73.912865,27,4.5,mexican
Grand Morelos,40.71188,-73.94367,198,3.5,mexican
Taco Rey de Oro,40.74416,-73.91249,73,4.5,mexican
Agave,40.74566,-73.97852,42,2.5,mexican
La Cemita Restaurant,40.6165924072266,-73.9853973388672,29,4.0,mexican
Sabor A Mexico Taqueria,40.7284353669,-73.9844540083,90,3.5,mexican
Sofia's Taqueria,40.61884,-74.069421273585,155,3.5,mexican
Ho'Brah a taco joint,40.6306496,-74.1030273,295,3.5,mexican
The Burrito Shoppe,40.6439103578422,-74.0777564987996,53,4.0,mexican
Automatic Slims,40.73632,-74.00817,92,3.5,mexican
Mi Nidito,40.767383,-73.989492,177,3.0,mexican
Pipo's Mexican Restaurant,40.7994318892483,-73.9398034173906,53,4.0,mexican
Itzel's Taqueria Deli,40.6994,-73.92319,1,5.0,mexican
El Patron,40.6291321267293,-74.0767305716872,102,3.0,mexican
New Mexico Place II,40.701727,-73.9060716709411,36,4.0,mexican
Adriana's Mexican Cuisine,40.6215899976324,-73.9607000192103,8,4.5,mexican
Parrilladas Sunrise,40.75597,-73.88396,40,4.0,mexican
El Rancho Burritos,40.7603099,-73.99087,121,3.5,mexican
Palacios Cafe,40.6510937958956,-74.0037050843239,20,4.5,mexican
El Toro Mexican Grill,40.7058516,-74.0122291,111,3.0,mexican
Haab,40.6694419,-73.983094,154,3.5,mexican
Burrito Loco,40.73195,-74.00154,272,3.0,mexican
Tacos Lupita,40.6189964711666,-73.9900372177362,49,4.5,mexican
Chipotle Mexican Grill,40.7067300775159,-74.0069423717269,170,3.5,mexican
Nacho Crespo,40.65249,-74.00661,5,5.0,mexican
Taqueria Restaurante Mi Barrio,40.6415601,-73.981455,23,4.0,mexican
Al Horno Lean Mexican Kitchen,40.762149,-73.990997,238,3.5,mexican
LA Burrito,40.70235,-73.92837,171,3.0,mexican
Maz Mezcal,40.77741,-73.95103,348,3.5,mexican
Aqui En Bella Puebla,40.748914629221,-73.872199729085,27,3.5,mexican
Parada 47,40.763092,-73.99443,45,4.0,mexican
Mr Burrito,40.7409739,-73.921299,25,4.5,mexican
El Barrio Burritos,40.671293,-73.958006,196,3.5,mexican
Casa de Julia,40.74618,-73.89954,8,4.0,mexican
Sonia Restaurant,40.671665,-73.99118,1,4.0,mexican
La Casa de Los Tacos,40.7740104861106,-74.06321,181,4.0,mexican
Tortas Morelos,40.63588,-74.02616,18,4.0,mexican
Chipotle Mexican Grill,40.6943493075516,-73.9918306239252,192,3.5,mexican
Rosa Mexicano,40.7382,-73.99083,1471,3.5,mexican
Tulcingo Restaurant,40.7490812325978,-73.869453089545,28,4.0,mexican
Latino Bites,40.7558072,-73.8825566,32,4.0,mexican
Abajo,40.7191772,-74.0043869,7,3.5,mexican
Nuevo Tacos Al Suadero,40.74872,-73.87206,30,4.0,mexican
Taqueria El Barrio,40.7982299,-73.93419,41,3.5,mexican
Los Viajeros Food Truck,40.76879,-73.9898,60,4.5,mexican
Cozumel Tortilla,40.76944,-73.98867,72,3.0,mexican
Mi Querido Mexico Lindo,40.79733,-73.93816,12,4.5,mexican
Tacos y Quesadillas Mexicanos,40.7456882160225,-73.9029264450073,41,4.0,mexican
Chipotle Mexican Grill,40.709753534351,-74.006442636788,108,3.0,mexican
Oaxaca Taqueria,40.77964,-73.95081,87,3.5,mexican
Panaderia Mi Mexico Pequeño,40.6474609375,-74.0074691772461,10,4.5,mexican
Sabor A Mexico,40.772556,-73.957035,175,3.5,mexican
Molcajetes,40.7185,-74.08314,13,4.5,mexican
Izzy’s Taqueria,40.6648701175503,-73.9368999749422,8,3.5,mexican
Zona Tribecca,40.71865,-74.01008,30,3.5,mexican
Chipotle Mexican Grill,40.7311619343981,-73.9934292,130,3.0,mexican
Antojitos Mexicanos,40.705406,-73.943206,38,3.5,mexican
Mezcal's Mexican Restaurant- Carroll Gardens,40.676055,-73.999229,62,3.0,mexican
Arriba Arriba Sunnyside,40.74413,-73.92352,219,3.0,mexican
Taqueria Buen Provecho,40.712779,-73.918381,1,4.0,mexican
Oaxaca Taqueria,40.7148433,-73.9626569,41,3.0,mexican
Tacos El Nopal,40.6228991,-74.02505,33,4.0,mexican
El Don Taqueria & Grocery,40.744444,-73.910731,21,4.5,mexican
La Espiga Restaurant,40.7474932045277,-73.8629732390564,13,4.5,mexican
Home Made Taqueria,40.72068,-73.94385,1,4.0,mexican
Chipotle Mexican Grill,40.7042967823792,-74.0129579731419,155,3.0,mexican
El Loco Burrito,40.7147469,-73.9445868,189,3.0,mexican
Aldys Restaurant,40.7590884,-74.0436112,12,5.0,mexican
El Paso,40.7953765043962,-73.9454336070241,16,3.5,mexican
Sol Azteca,40.719431,-74.049646,5,4.5,mexican
La Pasadita Taco Truck,40.697104,-73.934752,8,4.5,mexican
Mariachi Taco,40.68428,-73.86913,20,3.5,mexican
Taco Bell,40.73529,-73.99285,145,3.5,mexican
Las Conchitas Bakery,40.64579,-74.00941,11,4.5,mexican
Los Tres Potrillos,40.65289,-74.00621,67,3.0,mexican
Mally's Deli & Grocery,40.7036972045898,-73.9264450073242,38,4.5,mexican
La Perla Picnic,40.640182,-73.986396,9,4.0,mexican
Tia Julia Taco Truck,40.74242,-73.8789,22,4.5,mexican
Dos Toros Taqueria,40.7540578242766,-73.9859579131007,82,3.5,mexican
Pico Taco,40.73618,-74.03045,28,4.0,mexican
El Paso Mexican Grill,40.635877,-73.962081,168,3.0,mexican
Tacosssssss,40.68463,-73.86873,8,4.5,mexican
Kimchi Taco,40.7112121582031,-74.0148391723633,224,3.0,mexican
Santa Ana Restaurante Y Taqueria,40.7019462585449,-73.9190216064453,18,3.5,mexican
El Mirador,40.642345,-73.981109,27,3.5,mexican
Tacos Morelos,40.7053992525685,-74.007755112878,5,4.5,mexican
Antojitos mexicanos,40.63984,-74.01598,2,5.0,mexican
Taco Bell Cantina,40.753013,-73.992432,31,3.0,mexican
El Encanto De Lola 2,40.80389,-73.94865,38,3.5,mexican
Panaderia La Mixteca Poblana,40.637596973899,-74.0799138202344,12,4.5,mexican
El Rey del Sabor,40.7622400274526,-73.9663818196397,72,4.0,mexican
Chipotle Mexican Grill,40.690061,-73.983969,8,4.5,mexican
Noche Mexicana,40.79742,-73.96814,255,3.0,mexican
Delicias Puebla,40.7481134585446,-73.8776576891541,1,5.0,mexican
Swick 2,40.7564825,-73.9254339,35,4.0,mexican
Agave,40.734767,-74.002415,1272,3.5,mexican
Gringo's,40.7216329213934,-74.0476842694786,452,3.5,mexican
TRI Mexican Tacos,40.73918,-73.98977,10,4.5,mexican
Dos Toros Taqueria,40.7592114,-73.9706706,88,3.5,mexican
El Rey Del Taco,40.7725668,-74.0291146,40,4.5,mexican
Bonao Chimi,40.6914405822754,-73.8650207519531,4,4.5,mexican
La Troca del Sabor,40.716173,-73.959511,37,4.5,mexican
El Nuevo Amanecer Restaurant,40.72098,-73.9872,126,3.0,mexican
Tulcingo Restaurant,40.748838,-73.863422,70,3.0,mexican
La Piedra Del Sol,40.7795,-74.01768,16,5.0,mexican
Bubby's Burritos on Wheels,40.7153,-74.03406,4,4.5,mexican
Las Chelitas,40.62128,-74.00662,19,4.5,mexican
Zabrosura,40.6032401,-74.0834004,41,4.5,mexican
Fresh Tortillas Express,40.72874,-74.00505,65,3.0,mexican
Piaztlan,40.671852,-74.003242,1,5.0,mexican
Orale Mexican Kitchen,40.754888,-74.029532,155,4.0,mexican
Esquina Tequila,40.75285,-73.92371,11,3.0,mexican
Loquito,40.7391797315296,-74.0302836184233,59,4.0,mexican
El Sol de Cholula,40.7003,-73.92452,30,4.0,mexican
Don Chucho,40.6267799,-74.12688,15,4.5,mexican
Tacos El Bronquito,40.6491662,-74.0092249,18,4.0,mexican
Pampano Taqueria,40.75537,-73.97054,167,3.5,mexican
Lindo Guerrero Restaurant,40.69558,-73.91695,7,4.0,mexican
El Gallo De Oro,40.6983642578125,-74.0864791870117,22,4.5,mexican
Taqueria Diana,40.71936,-73.98512,53,3.0,mexican
Taco Today,40.7405494712194,-73.9226905016578,11,4.5,mexican
Taco Bell Cantina,40.74432,-73.99572,36,2.5,mexican
Los Tres Chilitos,40.75021,-74.04619,196,4.0,mexican
Zefe's,40.697511,-73.928985,51,3.5,mexican
Super Tacos,40.795452,-73.973281,135,3.5,mexican
Los Dos,40.7161737435222,-74.0379417151063,42,3.5,mexican
Yummy Taco,40.63879,-73.89554,26,3.0,mexican
Jalisco Tacos,40.80622,-73.91748,17,4.0,mexican
Chipotle Mexican Grill,40.6929735441036,-73.9701509848237,41,2.5,mexican
Los Cuernos,40.72598,-74.03594,94,3.5,mexican
La Chona's,40.7593333,-73.9193226,15,3.5,mexican
Avocados Mexican grill,40.60429,-73.97427,2,4.5,mexican
Tacos Al Suadero,40.7504654470745,-73.8631192539666,26,3.5,mexican
Cemitas Puebla,40.7681059022073,-74.033584,154,4.0,mexican
Burrito Bar,40.630321,-74.108752,203,3.0,mexican
Azteca Bakery Grocery,40.6979434,-73.9028174,6,4.5,mexican
La Chula,40.7748020963296,-73.8734815388558,34,2.5,mexican
Aroma A Mexico Taqueria,40.66637,-73.99246,60,3.0,mexican
Leon Bakery Mexican Restaurant,40.762237,-73.990272,51,3.5,mexican
Josefina's Restaurant,40.734255,-73.882604,22,4.5,mexican
Mexican Deli,40.7996094,-73.9685912,27,4.0,mexican
Mexican cantina,40.61302,-74.12178,14,4.0,mexican
Que Rico Taco!,40.7559184407272,-73.8786816224456,14,4.0,mexican
Mr. Nice Guy Deli & Grill,40.7054199,-73.94447,10,4.5,mexican
Tacos Deliciosos El Amigo,40.64096,-74.01802,3,4.5,mexican
Tacos Y Quesadillas Mexico,40.777487,-73.982069,33,4.0,mexican
Sabor A Mexico,40.77953,-73.94704,139,3.5,mexican
Lucio Angelita Tacos,40.7594591154635,-73.9697938801726,25,4.0,mexican
Chofi Birria,40.72146,-73.96068,1,5.0,mexican
Tacos El Paisano,40.6344970858477,-73.9622190222144,19,3.5,mexican
Chipotle Mexican Grill,40.693598,-73.986388,109,2.0,mexican
Carmelita Deli & Grocery,40.6599044799805,-73.9990386962891,9,4.5,mexican
Taqueria Sabor Mixteca,40.71588,-74.06847,1,5.0,mexican
Spiro's Cafe & Pizza,40.6547813415527,-74.0043869018555,44,3.5,mexican
Tacos Él Gallo Giro,40.7468650335835,-73.8900142908096,38,4.0,mexican
Chipotle Mexican Grill,40.732962,-73.9808002,39,3.0,mexican
Chipotle Mexican Grill,40.7282126439376,-74.005033,75,3.0,mexican
Takumi Taco,40.7543951061432,-73.975995182991,55,3.0,mexican
Leo's Restaurant,40.703573,-73.926227,62,3.5,mexican
Taqueria Viva Mexico Kitchen Cafe,40.7139,-74.04029,320,3.5,mexican
Bread & Butter,40.7537832561612,-73.971406698227,102,2.5,mexican
Taco Bell,40.700852,-73.941219,31,3.5,mexican
Cinderella's Restaurant,40.6374588,-74.0799103,11,4.0,mexican
El Aguila Dorada Restaurant,40.6756098548753,-74.1081924349606,297,4.0,mexican
Homemade Taqueria - Corona,40.7487763969621,-73.8692231476307,46,3.5,mexican
Sombrero Mexican Restaurant,40.7611200213432,-73.9870921522379,325,2.5,mexican
El Nuevo Amanecer Deli,40.75381,-73.87174,1,4.0,mexican
La Bamba Taqueria,40.7982688062578,-73.9395777590942,7,4.5,mexican
Mally's 2,40.7038964,-73.9098091,12,4.0,mexican
Chipotle Mexican Grill,40.7187624898711,-74.0021132151368,27,2.5,mexican
El Sabor Latino Restaurant,40.6647638,-73.9938216,13,3.5,mexican
Taco Bell,40.7085700625669,-74.0051098912954,21,2.0,mexican
Cherokee Deli,40.684788,-73.914368,3,4.5,mexican
Rancho Tequileria,40.793432,-73.971356,4,4.0,mexican
Chipotle Mexican Grill,40.73984,-73.98513,115,3.0,mexican
Tacos El Picosito,40.707008,-74.012266,5,3.5,mexican
Alta Calidad,40.680134,-73.968232,3,3.0,mexican
Taco Bell Cantina,40.7341754446272,-73.9807550109222,17,3.0,mexican
Hot Jalapeño,40.7976444478292,-73.9390864432851,74,3.5,mexican
Chipotle Mexican Grill,40.7420588369682,-74.0012180944948,127,3.5,mexican
Las Viandas,40.700604,-73.894066,6,3.5,mexican
Tri Mexican Tacos,40.7421913,-73.9188919,35,4.0,mexican
My Mexico,40.725021,-74.077462,38,4.5,mexican
El Chilango Taqueria,40.74251,-74.04558,3,4.5,mexican
Tortilleria Nixtamal,40.75035,-73.86092,2,4.0,mexican
Mandato Mexican Restaurant,40.63312,-74.02744,64,3.5,mexican
C-Xique Cafe,40.65084,-74.01173,2,5.0,mexican
Kathy The Tamale Lady,40.7986227214486,-73.9416182220012,7,4.5,mexican
Emilia's Pizza & Authentic Mexican Food,40.7662621,-73.9150543,43,4.5,mexican
Dekalb Taco,40.691126,-73.9825963,49,3.0,mexican
Tacos Carmelitas Parientes,40.6450761771438,-74.0209712036988,1,5.0,mexican
Jen Maxine,40.7915992736816,-74.0039978027344,3,5.0,mexican
Las Tainas,40.7078337723625,-73.955848724345,11,3.5,mexican
Mezcals Mexican Restaurant,40.675832459091,-73.980664999247,129,3.0,mexican
El Buen Gusto Restaurant,40.76864,-73.93129,3,4.5,mexican
Chipotle Mexican Grill,40.7417580635002,-73.9933703380461,126,2.5,mexican
Tacos Mi Mexico,40.782706,-73.948542,11,4.5,mexican
Paloma at The Hotel Hendricks,40.751761,-73.984092,9,3.0,mexican
Tequila Chito's Mexican Grill,40.7460136413574,-74.0009002685547,201,2.5,mexican
Luntey Commons,40.6901007787083,-73.9812179287965,1,4.0,mexican
El Maguey Mexican Restaurant,40.7555523,-73.8840807,59,3.5,mexican
Taco House,40.7156225,-74.0073923,87,2.5,mexican
Yummy Taco,40.64333,-73.97851,60,2.5,mexican
Taco Wow,40.6225,-74.02869,4,3.5,mexican
Taqueria El Fogon,40.70362,-73.93314,37,3.0,mexican
Happy Fresh Tortillas Grill,40.66772,-73.9807,63,3.5,mexican
Taco Mix,40.6563397347466,-74.0078896656632,35,2.5,mexican
Taqueria Los Parientes,40.702826,-73.895526,2,5.0,mexican
Tacos El Tri,40.7654772,-73.9137044,2,5.0,mexican
Terrace Coffee Shop,40.654417,-73.979346,128,3.0,mexican
Chimi Internacional,40.69843,-73.92361,1,5.0,mexican
Takumi Taco,40.757156,-73.972604,7,3.5,mexican
Cascabel Taqueria,40.7772239285053,-73.9525686359431,2,4.5,mexican
Deli El Bigote,40.650634,-73.9483944,1,5.0,mexican
burritos juarez,40.7205689118661,-73.9619218900046,1,5.0,mexican
Tacos Al Suadero,40.7489192,-73.8762672,9,3.5,mexican
Orale Mex Food,40.770261,-73.918361,2,4.5,mexican
Taco Bell,40.7381824643149,-73.9817644443767,2,4.5,mexican
Happy Fresh Taco,40.7002962,-73.9069016,62,3.5,mexican
Paraiso Azteca Restaurant,40.6086,-73.9571799,59,3.5,mexican
Terrific Wings Tacos And Things,40.80006,-73.94041,27,3.5,mexican
403 Restaurant,40.644306,-73.976409,20,4.0,mexican
Taqueria Mi Mariachis,40.70715,-73.92465,12,3.5,mexican
Punta Cana Coffee Shop & Restaurant,40.69063,-73.95696,35,3.0,mexican
La Cabana,40.76564,-73.91929,40,4.0,mexican
Dos Toros Taqueria,40.7518321782203,-73.9799775928259,12,3.5,mexican
El Coyote Restaurant,40.7552907510186,-73.8866319740258,241,3.0,mexican
San Atanacio Deli-Grocery,40.6149709748988,-73.9805127187319,7,4.5,mexican
Momento Restaurant,40.750941,-73.939311,52,3.0,mexican
Tacos Morelos,40.7510899,-73.8729109,31,4.0,mexican
Mision Burrito,40.740255,-74.04693,52,4.0,mexican
Tacos Molly,40.69921,-73.92689,2,3.5,mexican
Chipotle Mexican Grill,40.7364651602613,-73.997175973628,38,3.0,mexican
L.A. Burrito,40.679673108316,-73.9647560566664,67,3.0,mexican
Dos Toros Taqueria,40.75685,-73.97738,24,3.5,mexican
Chipotle Mexican Grill,40.7559426,-73.8802379,57,3.0,mexican
El Carrito Rojo,40.7404425253104,-73.9945895042632,20,3.5,mexican
El Paso Mexican Grill,40.6759231,-73.9713534,35,3.0,mexican
Taquerias Veracruz,40.7833448,-74.0197169,31,4.5,mexican
Tacos Mexico,40.75914,-73.92015,96,3.0,mexican
La Fondita Mexican Restaurant,40.7372512493621,-73.895684145391,4,2.0,mexican
El Rey Del Sabor,40.7555,-73.98361,29,4.0,mexican
El Pastorcito,40.6379508972168,-74.0790176391602,2,5.0,mexican
Fresh Tacos,40.741268,-73.918899,37,3.5,mexican
Mi Pequeno Ranchito Restaurant,40.6388833181132,-73.9944920424362,4,3.5,mexican
Waheyo Modern Mexican,40.7499503,-73.9396376,43,3.5,mexican
Taqueria Guadalupe,40.793716,-73.944923,47,3.0,mexican
Taco Bite Food Truck,40.70602,-74.00889,38,4.0,mexican
Moe's Southwest Grill,40.7514627416272,-73.9933718735322,76,3.0,mexican
Taqueria & Deli Gloria's,40.7352069,-74.0671543,46,4.0,mexican
Los Amigos Mexican Restaurant,40.7744827270508,-73.9123611450195,130,3.0,mexican
Taquitos Daza,40.6543463,-74.0044835,1,5.0,mexican
King Tacos Mexico,40.757818,-73.866412,23,3.0,mexican
El Penacho Restaurant,40.60859,-73.97368,40,3.0,mexican
Don Paco Lopez Panaderia,40.6479,-74.01079,28,3.5,mexican
Pico de Gallo,40.747691,-73.885393,28,3.5,mexican
Heavenly Chicken and Ribs,40.750067,-74.060856,27,4.5,mexican
Takumi Taco,40.764746,-73.9744989,4,3.0,mexican
Casa Lupita,40.6824438,-74.1029093,64,4.0,mexican
Don Paco Lopez Panaderia,40.7981399,-73.93965,1,5.0,mexican
Azteca Taqueria Restaurant,40.7624358046918,-74.041139075534,5,5.0,mexican
Tacos Victoria,40.726542,-74.048619,22,4.0,mexican
"Bagels By Day, Tacos By Night",40.62795,-74.0765,15,4.5,mexican
Tacos El Zocalo De Tepango,40.6285158,-73.9447994,2,5.0,mexican
Taquitos Mexicanos,40.74713,-74.04892,6,5.0,mexican
Carlos & Gabbys,40.78458,-73.97393,2,5.0,mexican
Besito Restaurant and Bar,40.68162,-73.97709,13,3.0,mexican
Tres Chivos Restaurant Corp,40.640762,-74.014672,1,5.0,mexican
Top Taco,40.626601,-73.941478,6,4.0,mexican
Macareno Central,40.6351011097354,-74.0235973522067,4,4.5,mexican
Azteca Maya,40.6852359647161,-73.8727523634613,9,4.0,mexican
The Crus-Z Family,40.7482743,-73.8791069,1,5.0,mexican
Taco Today,40.77726,-73.94932,77,3.0,mexican
Molcajete Mexican Restaurant,40.748864,-73.874088,21,4.0,mexican
La Mexicana,40.7272383570671,-74.0058897435665,3,3.5,mexican
New Yummy Taco,40.66439,-73.98055,26,3.0,mexican
Zona Libre,40.7710194431672,-74.023070416813,32,4.0,mexican
Tequilas Mexican Grill,40.74612,-74.00083,11,3.5,mexican
Tacos Tijuana B.C,40.64036,-74.01505,28,3.0,mexican
The Tamale Stand at Evelyn Mini Market,40.65032,-74.00454,6,4.0,mexican
Selena Rosa,40.779514,-73.950149,330,3.5,mexican
Tacos Hidalgo,40.728352637419,-73.99962635664,2,5.0,mexican
Chipotlan Hot Sauce,40.6811104,-73.8628769,1,5.0,mexican
La Rosa Del Tepeyac Corporation,40.703918,-73.926828,1,5.0,mexican
Chipotle Mexican Grill,40.7523240509048,-73.9943282119156,193,3.0,mexican
KC Taqueria Coffee Shop,40.70515,-73.89659,37,3.0,mexican
Fresh Taco,40.7004794161793,-73.90664935112,84,3.0,mexican
Fiesta Cozumel,36.13112,-95.90408,35,3.0,mexican
El Compita,40.7589,-73.92601,1,5.0,mexican
Chicanos,40.63789,-73.99474,3,3.5,mexican
Jicama NYC,40.74826,-73.988506,20,3.5,mexican
TAQUERIA JIMMY EXPRESS,40.7019691,-73.9244003,2,4.5,mexican
La Estrella Del Castillo,40.6657257080078,-73.9511795043945,30,3.0,mexican
Chipotle Mexican Grill,40.7513598717152,-73.9807213724047,105,3.5,mexican
Taqueria Puebla,40.608470916748,-73.9736557006836,12,4.0,mexican
Casa Vieja,40.63913,-74.01618,15,3.5,mexican
El Toro Bravo,40.7479930621229,-73.8780908659101,40,3.5,mexican
Yummy Taco,40.6357488,-73.9131869,20,3.5,mexican
Nini's Deli & Grocery,40.76114,-73.94065,1,5.0,mexican
Tia Julia Restaurant,40.7481287,-73.876809,1,5.0,mexican
Taco Bell,40.6806333343623,-73.9495513592666,34,2.0,mexican
5 De Mayo Food Market,40.7476971501601,-73.8844594359398,4,4.0,mexican
Viva Mexico,40.762581,-74.0358765043285,7,4.5,mexican
East LA,40.74258,-74.02966,388,3.0,mexican
Authentic Mexican Cuisine & American Fast Food Cart,40.71531,-73.96043,8,4.0,mexican
Tamales Lupita,40.79581,-73.94317,10,4.0,mexican
El Toro Rojo Truck,40.7720489501953,-73.9260635375977,24,4.0,mexican
New Taco Express,40.74267,-73.98276,56,3.0,mexican
Sabor A Veracruz,40.79295,-74.01361,143,4.0,mexican
Flying Burritos,40.7322235107422,-74.0013046264648,1,4.0,mexican
Bella Cholulita,40.701969,-73.924402,5,4.0,mexican
Mexican Food Cart,40.7777287215704,-73.951352037437,2,5.0,mexican
Viva Puebla Incorporated,40.7482212,-73.8771615,1,5.0,mexican
Taco Veloz,40.748345,-73.876047,8,4.0,mexican
Marina's Tacos Mexicanos,40.74633,-73.89832,3,5.0,mexican
Chipotle Mexican Grill,40.7373410485017,-73.9900453717756,92,3.0,mexican
Coyote Bohemio,40.70008,-73.90782,13,3.5,mexican
Chipotle Mexican Grill,40.7342197620958,-73.9888242756081,116,2.5,mexican
QDOBA Mexican Eats,40.7414127,-74.0299258,102,3.0,mexican
Chipotle Mexican Grill,40.74606,-73.994,123,2.5,mexican
Rinconcito Familiar,40.649815,-74.005753,6,3.5,mexican
Oaxaca Taco De Revolucion,40.7475815,-73.9542618,1,4.0,mexican
The Spot Mix Grill,40.76495,-74.039442,4,4.5,mexican
Chipotle Mexican Grill,40.7336055029597,-73.9999257490912,50,2.0,mexican
Las Margaritas Astoria Restaurant,40.7594468,-73.9195285,248,2.5,mexican
Chipotle Mexican Grill,40.7573035994182,-73.9707317017647,168,3.5,mexican
"Daisy's 111 Pizza,Wings & Burgers",40.75755,-73.93146,6,4.5,mexican
Taco Bell Cantina,40.689867,-73.922224,18,3.0,mexican
La Comadre,40.691377,-73.866042,19,4.0,mexican
46 Grill Cafe,40.7396163,-73.9192778,7,2.5,mexican
Domo Taco,40.7040372693713,-74.0089119241865,1,5.0,mexican
Chipotle Mexican Grill,40.7441435282885,-73.975871745998,71,2.5,mexican
Mi Taqueria Tolte Restaurant,40.74225,-73.87199,13,3.5,mexican
Frida's Favorites,40.753204,-73.982269,1,4.0,mexican
El Rey Restaurant,40.77137,-73.92198,72,3.5,mexican
Taqueria Puebla,40.634014,-74.1256406,19,4.0,mexican
Tacos El Gallo Giro,40.7457099033477,-73.9025069451243,1,4.0,mexican
Karen Deli Grocery,40.638714,-74.01738,3,4.5,mexican
Best Buds Burritos,40.7213227450848,-73.9606811106205,3,4.5,mexican
El Gallo Giro Food Truck,40.8038987417714,-73.9671234059549,1,5.0,mexican
Baja Mexican Cuisine,40.75349,-74.026384,208,3.5,mexican
Taqueria Downtown,40.7210813462734,-74.0426413714886,116,3.5,mexican
Mezcal Kitchen JC,40.73428,-74.0591,66,4.0,mexican
Tacos California,40.64714,-74.0086,25,3.5,mexican
Fresca Tortilla,40.72776,-73.89284,33,3.0,mexican
Gonzalez Mexican Restaurant,40.637175,-73.968559,8,3.0,mexican
Win Xin,40.6272087,-73.9963531,5,3.5,mexican
Chipotle Mexican Grill,40.7260906898757,-73.9965334019351,56,2.5,mexican
Taco Bell,40.77632,-73.95265,18,3.5,mexican
Hernandez Deli Grocery,40.63347,-73.96468,3,4.0,mexican
Chipotle Mexican Grill,40.748472,-73.984961,111,3.0,mexican
La Cabanita,40.613073,-73.989069,1,5.0,mexican
The Jaguar Restaurant,40.79359,-73.94512,6,4.0,mexican
Alebrije Mexican Restaurant And Cafe,40.70182,-73.91952,7,3.5,mexican
Las Quesadillas,40.78961,-74.00813,3,5.0,mexican
El Burro Mexican Grill,40.70331,-73.9222,32,3.0,mexican
La Bienvenida Restaurante,40.7461399,-73.89975,4,4.0,mexican
Yummy Taco,40.69213,-73.98681,39,2.5,mexican
Cholula Deli Grocery,40.699207,-73.916503,18,3.5,mexican
Isabela Mexican Restaurant,40.649735,-74.009627,28,3.5,mexican
Gabriela's Tacqueria,40.7586328147499,-73.9884533435756,18,2.5,mexican
taqueria santa fe,40.798250801889,-73.9396515841092,3,4.5,mexican
Taqueria Gardenias,40.71748,-74.04385,4,5.0,mexican
The Burrito Spot,40.61299,-74.12746,31,3.0,mexican
Chipotle Mexican Grill,40.7000298264766,-73.9409675455037,8,3.0,mexican
El Tio Taco,40.7832760321852,-74.0203918615574,52,3.5,mexican
Chipotle Mexican Grill,40.7146416,-74.0063629,55,2.5,mexican
La Cafe,40.7560043334961,-73.9803085327148,1,4.0,mexican
Mezcal Kitchen,40.66334,-74.11837,112,3.5,mexican
El Bohemio Jarocho,40.641959,-74.013184,2,4.0,mexican
Chipotle Mexican Grill,40.8046719841577,-73.9669579851146,120,3.0,mexican
El Mole Poblano,40.77794,-74.02301,11,4.0,mexican
Wyckoff Restaurant,40.70051,-73.91307,20,3.5,mexican
Chipotle Mexican Grill,40.759475,-73.982588,122,3.0,mexican
3 Coffee Beans Restaurant,40.7240767031908,-74.0648453682661,61,4.0,mexican
Elmhurst Deli & Juice Bar,40.7437352,-73.8845266,43,3.0,mexican
Tequilitas Restaurant,40.64486,-74.01381,13,3.5,mexican
Viva Margarita,40.80668,-73.99235,147,2.5,mexican
Flacoz Tacoz,40.74341,-73.97941,4,3.5,mexican
L'a Autentica Panaderia,40.605869,-74.000908,7,3.5,mexican
Taqueria Mexicana,40.7965563,-74.0103249,65,3.5,mexican
La Tapatia Deli Grocery,40.7025,-73.92506,4,4.0,mexican
Leaping Frog Cafe,40.7675926,-73.9707695,2,2.5,mexican
Aldo's,40.6067020075109,-73.9633921533823,9,3.5,mexican
La Barbona,40.7348019839623,-74.0007938817143,6,2.0,mexican
Chipotle Mexican Grill,40.7539825,-73.9815735772981,160,3.0,mexican
Tacos Mexico Restaurant & Bar,40.748115,-73.86363,31,3.0,mexican
El Espino,40.6415829546968,-74.0175506472588,15,3.0,mexican
El Vaquerito,40.75369,-73.90612,6,3.0,mexican
Lime Jungle,40.7637225067011,-73.9890897274017,91,2.5,mexican
Flaming Burritos,40.77843,-74.017,175,3.5,mexican
Organic Mexican Food,40.7598992013858,-73.9804509576337,4,3.5,mexican
Naranjo's Taco Truck,40.74025,-73.98912,5,4.0,mexican
Super Taco Plus,40.69232,-73.98702,18,3.0,mexican
Tacos El Borrego,40.7491946770686,-73.8696340142573,1,5.0,mexican
Ovi's Express,40.6325905770063,-73.9481437951326,24,3.0,mexican
El Paso Restaurante,40.79532,-73.94505,2,4.5,mexican
La Cocina De Ana,40.7835648296867,-74.0152622233483,1,5.0,mexican
Chipotle Mexican Grill,40.716629,-73.960545,36,2.5,mexican
Gourmet Deli 65,40.7434954570452,-73.8986053514038,1,5.0,mexican
Cesar's Empanadas,40.68506,-73.97797,5,3.5,mexican
4 Caminos Mexican Restaurant,40.70515,-73.89659,9,3.0,mexican
Nuevo Tacos Al Suadero,40.7491493,-73.8681183,5,3.0,mexican
Taqueria Restaurante Mi Barrio 2,40.6512832641602,-74.0034790039062,5,3.5,mexican
Sabor a Mexico,40.7833137512207,-74.020751953125,2,5.0,mexican
El TRI MX Restaurant & Bar,40.75701,-73.86896,3,5.0,mexican
Piaxtla Es Mexico Deli,40.64453,-74.01066,3,4.0,mexican
Agave - New York,40.734999,-74.002438,6,2.5,mexican
Chipotle Mexican Grill,40.7226695409783,-73.997526,88,2.5,mexican
Chipotle Mexican Grill,40.7472274911575,-73.9416488169289,52,2.0,mexican
Tropicana 88,40.74846,-73.877883,1,5.0,mexican
Giovanni Pizza Restaurant,40.7411792167517,-73.9180011701606,18,3.5,mexican
Yummy Taco Mexican Restaurant,40.7557407,-73.9124395,76,3.0,mexican
Tacos Juquilita,40.7460399717093,-73.9905200153589,5,4.5,mexican
Tienda Tulcingo Del Valle Corporation #2,40.74986,-73.864353,1,4.0,mexican
Chipotle Mexican Grill,40.7150429481793,-74.0110299594754,83,2.5,mexican
Sabor Mexicano,40.7469530536088,-73.89049248884,20,4.0,mexican
Gina la Fornarina,40.776603,-73.981794,30,3.0,mexican
Taco Cart,40.640614,-74.018796,12,4.0,mexican
Fresco Tortillas,40.75618,-73.92941,49,3.0,mexican
Tochimilco Restaurant,40.6399942,-74.0158208,5,3.0,mexican
Nealtican Deli Grocery Corp,40.707988,-73.923703,5,2.5,mexican
BK Burrito,40.64296,-73.99109,3,3.5,mexican
San Miguel,40.631626,-74.124572,16,4.0,mexican
China Kitchen,40.65085,-73.94619,5,2.0,mexican
211 New Taco Grill,40.73317,-73.98616,45,2.5,mexican
Guerrero,40.72396,-74.06616,14,3.5,mexican
Mike's Restaurant,40.7490565407106,-74.0408829376835,14,3.5,mexican
Domo Taco,40.75994,-73.97095,158,3.0,mexican
Master Grill,40.805913,-73.913984,17,3.5,mexican
Chipotle Mexican Grill,40.6892253309826,-73.9928246472388,70,3.0,mexican
EL Charro De Morelos Café & Mexican Grill,40.64021,-73.95556,5,3.0,mexican
Las Banderas Mexican Restaurant,40.6130051700052,-73.9735755340844,9,3.5,mexican
Tacomobile,40.7172522906789,-74.0357595983866,8,4.0,mexican
Vianny Vero & Bere,40.7004241943359,-73.9131393432617,2,3.5,mexican
El Taco Ranchero,40.7992528022211,-73.9390614933376,5,4.5,mexican
Tacos Veloz,40.7478497004555,-73.8802769741681,8,3.5,mexican
Azteca Mexican Food Truck,40.7503664276145,-73.9793021693897,2,4.0,mexican
Jennis Restaurant,40.608535,-73.973266,1,4.0,mexican
